business_id,name,city,neighborhood,latitude,longitude,cuisine,RestaurantsPriceRange2,stars,Order/Waiting Time,Pizza,Customer Service,Pasta,Atmosphere
-CLTZ0cO-ooKDDmXHFoGMg,Pi Co,Toronto,Yorkville,43.670003200000004,-79.3898095,italian,2.0,4.015873015873016,0.07512003687943339,0.6174460637560057,0.09160227045563342,0.05956778903848221,0.15626383987044515
-L88B-PrtzwujhLuYc2k_g,Joe Badali's Ristorante Italiano & Bar,Toronto,Downtown Core,43.6453652,-79.3843545,italian,2.0,3.6470588235294117,0.2979463324355344,0.06613210619208605,0.25413843226354593,0.19463888026569348,0.18714424884314
-b-waFIsc6BJdXWOJMRKEQ,Marinellas Italian Restaurant,Toronto,Bickford Park,43.655076405699994,-79.4154641032,italian,3.0,4.5046728971962615,0.21564086796058662,0.03133233662560416,0.25317444409221584,0.3346353413353576,0.16521700998623573
-t2b2DaLhrb2-Ngv8Tvw9w,Il Sogno Ristorante,Toronto,Mount Pleasant and Davisville,43.7005834,-79.396869,italian,2.0,3.6923076923076925,0.20029660476659045,0.13030929496203456,0.2480554764819775,0.22826032620536385,0.1930782975840336
-w2WaIQWPH4iNeJz7IZKDw,Coppi Ristorante,Toronto,,43.731676799999995,-79.40354559999999,italian,3.0,3.9,0.32651513364747614,0.01099674975357231,0.29237626211444795,0.23187677720854313,0.13823507727596046
02Ycww2etUAxorZb5gIM8Q,Tre Mari Bakery,Toronto,Corso Italia,43.6765075,-79.44872009999999,italian,1.0,4.321428571428571,0.14832555330857097,0.09552526191271218,0.1583179760105948,0.19493632658533785,0.4028948821827841
0O3H5plJx-Cq2A80qFVW5w,LAB,Toronto,Little Italy,43.6549862,-79.4159745,american,3.0,3.764705882352941,0.3821816797596401,0.012279607438256887,0.2160269137405561,0.22942540901905129,0.1600863900424956
0O3H5plJx-Cq2A80qFVW5w,LAB,Toronto,Little Italy,43.6549862,-79.4159745,italian,3.0,3.764705882352941,0.3821816797596401,0.012279607438256887,0.2160269137405561,0.22942540901905129,0.1600863900424956
0Ovh4Vn9ntMt5Ara-ZP2sA,Cinquecento Trattoria,Toronto,Liberty Village,43.6401061,-79.4212152,italian,2.0,4.0,0.30068381463736926,0.08911857541488127,0.20072559227753298,0.22493477542414375,0.18453724224607285
0XZkaHXjxHAhJc_jPtoJCA,Vita Sociale,Toronto,Yonge and Eglinton,43.7114497,-79.3995315,italian,3.0,2.5,0.3476228143015182,0.11714307315982646,0.15896641517393675,0.20443475308007,0.1718329442846486
0k6B3X0sinFB7ASe1lWg1Q,Pasta Mondo,Toronto,Yonge and St. Clair,43.687158312600005,-79.39700985520001,italian,1.0,3.5,0.0,0.01132115753536137,0.17601715707016574,0.5772649280434596,0.23539675735101315
0pHBqJT0mzu9bO6D33Byug,Alio Restaurant & Wine Bar,Toronto,Downtown Core,43.6557849,-79.38419240000002,italian,2.0,3.8,0.44361772848167735,0.014961305554007353,0.1010390748826476,0.010723280663123298,0.42965861041854436
0r9NuzpFE6l0hwVAJDnhVg,San Francesco Foods - Bay,Toronto,Downtown Core,43.6593807,-79.385626,italian,2.0,3.5555555555555554,0.1648854745420856,0.1894865844487234,0.06165060252002465,0.23567058500912744,0.34830675348003887
0rMFhLzeq3Z2OaJ62MQXlw,Spiga Ristorante,Toronto,Yonge and St. Clair,43.6862465,-79.39356140000001,italian,3.0,3.8,0.26420598551972274,0.18083937472950423,0.1428639111345062,0.12714340848048009,0.28494732013578683
0txNpCq2YunZSL7jHIiGlA,Lardon Restaurant,Toronto,Roncesvalles,43.6508821,-79.45084920000001,italian,3.0,4.166666666666667,0.4004039372830971,0.02011761573992687,0.2408618702170979,0.2768333940303337,0.0617831827295444
0xy5_iqOYWp_XRXpeb-IFQ,ViPei Bistro,Toronto,,43.731530600000006,-79.4040711,italian,2.0,4.142857142857143,0.14275504108351494,0.002545581139129389,0.21035006948230325,0.17804080582330117,0.4663085024717512
111d13yLgIdqvpZekgVnbQ,Pallucci,Toronto,Mount Pleasant and Davisville,43.7021058,-79.38747109999998,italian,,3.2,0.3029066059657878,0.009877767006033086,0.22733569587082475,0.33328369489660203,0.1265962362607524
17YCQTKmq4D5sMMaY1EbqQ,Olivia's At Fifty-Three,Toronto,Palmerston,43.6556662,-79.4138811,italian,3.0,4.2,0.32606471478350957,0.007934787722775562,0.20839287313044963,0.1679478849293318,0.2896597394339334
1PJpo48hSChCbriXEHGSjw,Opus Restaurant,Toronto,The Annex,43.6692085,-79.3972042,american,4.0,4.369565217391305,0.3855039198308889,0.014727061480789616,0.3704634674563567,0.1089899688864509,0.12031558234551362
1PJpo48hSChCbriXEHGSjw,Opus Restaurant,Toronto,The Annex,43.6692085,-79.3972042,italian,4.0,4.369565217391305,0.3855039198308889,0.014727061480789616,0.3704634674563567,0.1089899688864509,0.12031558234551362
1Z9rGyR3Ld2mtnOTE4pNcg,Big Slice Restaurant,Toronto,,43.6782843,-79.44246190000001,italian,2.0,3.6470588235294117,0.14127056512453331,0.22822682463352326,0.1617582052380527,0.12733570852605686,0.34140869647783395
1gL9mw6HRbetCb9vOBoPQw,Pizzaiolo,Toronto,Yonge and St. Clair,43.6877499,-79.394666,italian,1.0,4.416666666666667,0.06550417490169606,0.6084456269691961,0.10355557319269781,0.07075439075032526,0.15174023418608473
1kVicFRGjgUrB6IezlTTdw,Focaccia Restaurant,Toronto,Church-Wellesley Village,43.669422,-79.38575300000001,italian,2.0,3.769230769230769,0.29307172799528536,0.004587553386447532,0.21411121651728676,0.21328825773058008,0.27494124437040013
1tinvR_pRVARKO_JGC-IHw,Fabbrica,Toronto,Financial District,43.6474273,-79.3810513,italian,,5.0,0.06752527306323011,0.493619453865925,0.0,0.2524913271589331,0.18636394591191177
1yAUftiOsCEkZ4B1UsdxRQ,Anima Trattoria and Wine Bar,Toronto,Etobicoke,43.6274318,-79.4984186,italian,,5.0,0.21083964670362954,0.00048008088450444795,0.58852868974439,0.054444254457480176,0.14570732820999588
2-0Z3UeQZ_Mx98m8Dv3oeQ,Aria Ristorante,Toronto,,43.64341689689999,-79.3805038909,italian,3.0,3.5348837209302326,0.42340977201700136,0.0054530496200698286,0.23663594832999432,0.15187150492326784,0.18262972510966669
2JkwKt66xu1NCA0J1laeig,The Cliffside Bistro,Toronto,Scarborough,43.7058996056,-79.25142422319999,italian,,4.75,0.15179230751802603,0.001097917995553233,0.3354718334433069,0.07221647618073031,0.4394214648623836
2KooqK40Nd80sgIPE2ScyA,Sambuca Grill,Toronto,Downtown Core,43.6559258,-79.3929262,italian,2.0,3.4516129032258065,0.31355237322995905,0.059855580469635745,0.16552242698191844,0.21385343055509362,0.24721618876339313
2i0dDzxLuQQAwzxDZVR-1g,Oretta,Toronto,,43.6439175,-79.4016289,italian,3.0,3.4537037037037037,0.3156602277362888,0.09337801707420956,0.19468577116300645,0.1747161609570526,0.22155982306944272
3MmNFU-6po5M4hKRnQZusw,Invictus,Toronto,Corso Italia,43.6762825895,-79.449459212,italian,2.0,1.0,0.6493981308615306,0.2223918823207635,0.1067174518874681,0.021492534930237547,0.0
3QS2Wgedv3jjKC5vJXJTcA,Osteria Ciceri e Tria,Toronto,Downtown Core,43.652199700000004,-79.37815490000001,italian,2.0,4.0,0.21894361744834892,0.05417764588219126,0.25748129803961584,0.303296811881671,0.16610062674817294
3YKV1eralyrKQqoWOTJMDA,Giulietta,Toronto,Dufferin Grove,43.6535007,-79.42760899999999,italian,3.0,4.636363636363637,0.33421510251858033,0.142270471739585,0.21873109374431865,0.16291442997632927,0.14186890202118677
3biAdoMqbR3E2tHikgd2kQ,AMA,Toronto,West Queen West,43.645041688199996,-79.4161209092,italian,2.0,4.428571428571429,0.24123588000473684,0.02155872318991031,0.32680503123540466,0.21204919710985706,0.19835116846009115
3cqB5VOEBP52C9wbC8P-UA,Maialino Enoteca Italiana,Toronto,Parkdale,43.6391573,-79.4445333,italian,4.0,3.764705882352941,0.35816119101658084,0.020982207522390574,0.27146790119668496,0.27069105885713485,0.07869764140720875
3glVZZh_vyZH1VvPU0307A,Enoteca Sociale,Toronto,Little Portugal,43.649582200000005,-79.4256294,italian,3.0,4.183266932270916,0.2774606331494334,0.016046455373561756,0.22606868803778923,0.36817619975200105,0.11224802368721491
3k9treY8PmsZ42bKmuICgA,Spoon And Fork Plus,Toronto,,43.754171,-79.3494929,italian,2.0,3.6396396396396398,0.38222438024658467,0.02072784730286682,0.17062346423121666,0.15813108547066995,0.2682932227486619
3psSpUMwT4zdNca2pOPxRw,Fort York Pizzeria,Toronto,,43.636604399999996,-79.4054293,italian,2.0,3.125,0.14561059148282146,0.46005834896016834,0.20315251089943684,0.04833860004716491,0.14283994861040844
3q8MtOEIJ6nC7kVv_8Mfgw,Verona Restaurant,Toronto,Entertainment District,43.6461617,-79.39126590000001,italian,3.0,3.736842105263158,0.25100234520014425,0.03233645314202123,0.20235137092799196,0.32273466632159326,0.1915751644082493
3qTSOuJ-ZyU1L7o62KHSIg,Gio Rana's Really Really Nice Restaurant,Toronto,Leslieville,43.6633353362,-79.3304189287,italian,3.0,4.170731707317073,0.3259208282295735,0.011678736123968636,0.2585559565672309,0.17513686737690545,0.22870761170232162
40AZvMTzJ6jmjw9-H2H6hw,Bar Freddo Caffe,Toronto,Etobicoke,43.612781176300004,-79.5576543686,italian,2.0,4.625,0.1007210007257415,0.3160365430094605,0.14090660282125478,0.25646869756852475,0.18586715587501856
447ZwFuzlKlctvMP7HfUUw,Pizza Hut,Toronto,,43.7562204,-79.5180336,italian,,4.0,0.20953388172944604,0.4902407426151264,0.0,0.28059704201287183,0.019628333642555777
4BBda3yy_8GXGmYLcgggHw,Pizzeria Libretto,Toronto,,43.6445031,-79.3988108,italian,2.0,4.181818181818182,0.15291395409180675,0.46307870534088275,0.1821456770620596,0.10783731320006945,0.09402435030518129
4HeS4zlbf-IbwEItbrISlw,Crazy Tomato,Toronto,,43.7053619,-79.31280670000001,italian,2.0,4.333333333333333,0.19122459514435922,0.13007344486324393,0.23239706853658998,0.2294552628693409,0.21684962858646603
4LXZzgsrM1ZyS_-uB9Od2Q,Lil' Baci,Toronto,Leslieville,43.6604776517,-79.3432568465,italian,2.0,3.6634615384615383,0.19362764496773946,0.18063207610087265,0.21144273530021923,0.1417828260752044,0.2725147175559643
4V_dIB038vy53RHYgEvUcw,Metropolitan Resto Bar,Toronto,Downtown Core,43.6499935,-79.3772003,italian,2.0,4.181818181818182,0.25662712321375564,0.060591100494774404,0.28676486781389204,0.06408736400374831,0.33192954447382966
4itFChF4I-d2Mkleyh-tvA,Waynak Modern Halal Eatery,Toronto,Downtown Core,43.656657700000004,-79.3836105,italian,,4.333333333333333,0.1715725321639392,0.3656081456707654,0.20934648296515349,0.09240032940051583,0.16107250979962612
4jHAt1IJuTbSikhtQrFEEA,Revere,Toronto,Greektown,43.67979570000001,-79.34150890000001,italian,,4.636363636363637,0.18061366451726915,0.021731073153254555,0.4785413297145327,0.2062650809183539,0.11284885169658963
527O5H26A0lFtCHO6zEh8w,Big Ragu,Toronto,,43.6759926,-79.4506128,italian,2.0,3.625,0.31504282354361796,0.02114582319710001,0.19258966963767862,0.22023460070479015,0.2509870829168133
58HXM57wvUFLpgxTdP-fng,Osteria 55,Toronto,St. Lawrence,43.6490711,-79.3746787,italian,,4.0,0.1345626777156252,0.0,0.258615928295495,0.18355625008551923,0.4232651439033604
59c3Cp-p5i18xFCKUuCkFQ,La Vecchia Ristorante,Toronto,Yonge and Eglinton,43.7100711,-79.3987926,italian,2.0,4.069306930693069,0.26593920175260094,0.04907919072162438,0.27284195603632166,0.21033534134937268,0.20180431014008032
5D2lHX9z-psWbH5Dm0aZxQ,Mangiacake Ristorante & Catering,Toronto,Downtown Core,43.655572,-79.39216929999999,italian,2.0,3.6666666666666665,0.24350506268206637,0.017456210182260387,0.09847663602016693,0.13940185676017203,0.5011602343553343
5RzR64HqnLRHo-MpZ129mQ,Nove Trattoria,Toronto,Yonge and St. Clair,43.6867341,-79.3937883,italian,2.0,4.333333333333333,0.14275498917126803,0.10957776643969734,0.2825429711677304,0.23846134012970685,0.2266629330915974
5a2WPziZW2HoW10H1ovbpQ,The Peasant Table,Toronto,Riverdale,43.659535650900004,-79.3473240556,american,2.0,4.0256410256410255,0.2782281676585972,0.09023922565430349,0.2545067779006126,0.147327813193077,0.22969801559340963
5a2WPziZW2HoW10H1ovbpQ,The Peasant Table,Toronto,Riverdale,43.659535650900004,-79.3473240556,italian,2.0,4.0256410256410255,0.2782281676585972,0.09023922565430349,0.2545067779006126,0.147327813193077,0.22969801559340963
5dy8OiWJty9AuxBcBzeBZQ,Piano Piano,Toronto,,43.6631673,-79.4029775,italian,3.0,3.952830188679245,0.2975669278612714,0.11882913648559473,0.23516172572721256,0.23016747385541653,0.11827473607050464
5nie8WoCB-MpEYT5uE6t4A,Toni Bulloni,Toronto,Yorkville,43.669941200000004,-79.3933271,italian,3.0,3.8,0.25844691952698057,0.08173320555148768,0.27789933924338134,0.19414053577308338,0.1877799999050671
5vwA-2fU7A_QY7MqLeHQCg,Camerini Ristorante,Toronto,Mount Pleasant and Davisville,43.706607899999995,-79.3894361,italian,3.0,5.0,0.11422708243033504,0.01083051802952722,0.5315257547024359,0.20449478552580763,0.1389218593118942
61GK4EGXBd4uha_2unicNw,Acquolina Ristorante,Toronto,,43.681313200000005,-79.4283861,italian,2.0,3.25,0.23595691021553591,0.08603609934231396,0.2719446186632034,0.2913573566926158,0.11470501508633096
67dxFBcBKl9sEkIIcm3j4A,Pizza Pizza,Toronto,,43.6450945,-79.3980696,italian,1.0,3.6666666666666665,0.026614964837383976,0.5432650454058053,0.053240237280307474,0.04915367999759793,0.3277260724789053
6DWFVwgm3d9jfBUOkJuANQ,Enzo,Toronto,Niagara,43.6467407,-79.40632409999999,italian,2.0,4.083333333333333,0.09400390746215016,0.6651834242572908,0.07136941790769656,0.05144862789606628,0.11799462247679611
6I27BTuHI5PMvOBG4WS8NQ,Mercatto,Toronto,Downtown Core,43.6503158,-79.3759018,italian,2.0,3.7755102040816326,0.27708865459332954,0.11103295756233658,0.27042763442028517,0.19542412580881824,0.14602662761523066
6I715CbaGgu1Wu16ahmm8A,Cucina 865,Toronto,,43.754740710600004,-79.3497137725,italian,3.0,3.8666666666666667,0.33476217675484526,0.08383675340700386,0.16580793600809487,0.2551180392526354,0.16047509457742073
6L5xQca-_DnJCXEGa3dJjQ,Corvo,Toronto,Entertainment District,43.644695550200005,-79.3938714408,italian,4.0,4.5,0.14434283148045093,0.14600974964999164,0.2758178869997117,0.23528263879239905,0.1985468930774466
6LR0Eg5EAMEIES7CY7ITOg,Ferraro 502,Toronto,,43.70379260000001,-79.4132906,italian,2.0,3.945945945945946,0.14504732936155618,0.24378508242713537,0.20921281196142735,0.18097822775701528,0.22097654849286577
6Toez65egZSMV1iohQWGIQ,Cantine Bar & Grill,Toronto,The Annex,43.6744252,-79.3965417,italian,2.0,3.6363636363636362,0.26926856714277647,0.02194035672011921,0.23261087460805116,0.18207326036991878,0.2941069411591344
6a7zecn8W8r9dDWwQVb6aA,Novecento,Toronto,Corso Italia,43.6775605,-79.44513859999999,italian,2.0,4.666666666666667,0.1275772068311593,0.053756809904766556,0.22835199542556125,0.0776100456548655,0.5127039421836473
6bttTDLU4j4GeG7QnvU84Q,Nonna's Place,Toronto,The Junction,43.6572011,-79.4477704,italian,1.0,4.333333333333333,0.04651957781353206,0.023833624398624034,0.10035592080044818,0.34974098592506536,0.4795498910623303
6d7aOsiinhme6BB7s2QmZQ,Domino's Pizza,Toronto,Greektown,43.6796679,-79.3395009,italian,2.0,4.285714285714286,0.14918400676267377,0.43859265228849464,0.15868060506195897,0.10983148091181857,0.1437112549750541
6frPvwX14wDH8jju64ewRg,Paese,Toronto,Entertainment District,43.646122058500005,-79.3913017135,italian,3.0,3.4651162790697674,0.31200142413792736,0.09012483794728322,0.21007869490561065,0.24036429783486804,0.1474307451743106
6l5ES0YHypA-JCk7naGBjg,Troika Vodka Boutique,Toronto,St. Lawrence,43.649733197299994,-79.3748815366,italian,3.0,3.75,0.4838527941897838,0.006944705085169541,0.09296210443676431,0.0,0.41624039628828247
6tFbsJuIarw6vawDOZ9GkA,Pizza Hut,Toronto,Bloor-West Village,43.6526222,-79.4710037,italian,1.0,3.75,0.17778861168300597,0.5775462120082153,0.014214142793485965,0.039403429045160275,0.19104760447013247
6yhhRjPaBMhUye8QWxslzA,Campo de Fiori Restaurant,Toronto,Etobicoke,43.6452419,-79.52039609999999,italian,2.0,4.5,0.2289631755716904,0.012800801251334551,0.3188232501059772,0.33340203274750196,0.10601074032349593
7NDpbeFYqQE28wKLBZKGFw,Portobello Restaurant & Bar,Toronto,Discovery District,43.665369500000004,-79.387546,italian,2.0,2.2857142857142856,0.2988244939267224,0.042667200971116835,0.0945292424773393,0.30640460812048564,0.25757445450433586
7Q3POwUj0u168Qp4c8gCog,Sorrento Ristorante,Toronto,,43.7292932,-79.4033194,italian,4.0,2.3333333333333335,0.5408302428387769,0.0028600097591949636,0.16855669459898573,0.12144724219257436,0.16630581061046806
7Uti5EeAwm3drG14KVrE3Q,Spuntini Restaurant & Bar,Toronto,The Annex,43.67365770000001,-79.3963287,italian,3.0,4.153846153846154,0.2854773861021131,0.03541415757672798,0.329201140317725,0.19833197133621563,0.15157534466721845
7ZBh-3wWVQ5zkd6KZytW0g,Cibo Wine Bar,Toronto,Yorkville,43.670462,-79.3935696,italian,3.0,3.525,0.33382661848885176,0.12560324682655016,0.23025477732850974,0.1514942230294703,0.15882113432661826
7bkA-nYNZTAAXF9i5-o-Kw,A3 Napoli,Toronto,Little Italy,43.6552211,-79.4134057,italian,2.0,4.35,0.0947961265127322,0.4701397151730083,0.18599352767538413,0.07998154658181975,0.16908908405705556
7e5VezwFWmNyv5RvuHyFrQ,San Francesco Foods - Laird,Toronto,,43.7039309,-79.3609167,italian,1.0,3.125,0.17902167061648933,0.10127329170821363,0.024198865789232842,0.3066271850462187,0.38887898683984545
7oEKIG7d1ttPRejppZ3WIA,Lady Marmalade,Toronto,Leslieville,43.6605167515,-79.3431122999,italian,2.0,4.0708860759493675,0.2309608804492578,0.009837551132712145,0.11106353210229472,0.10613834547552871,0.5419996908402065
7tUmASg6tOmh_DcIz2R7SQ,Joe Maggiano's Italian Eatery & Bar,Toronto,,43.7750926,-79.3240124,italian,2.0,3.0,0.549029702404953,0.00011433533131682262,0.161213031980097,0.15710924315566813,0.132533687127965
7vl54MQuqZQlNj4IYakwVg,Rione XI,Toronto,,43.68198710000001,-79.42552690000001,italian,2.0,4.333333333333333,0.08444114291415108,0.1536310158050795,0.30747052901930094,0.38711924293887223,0.06733806932259631
7zuWSun5F8Jv2N_IFD_ERg,Grappa Ristorante,Toronto,Bickford Park,43.6547102687,-79.4208085465,italian,3.0,3.5714285714285716,0.3528339285469152,0.019347238381967245,0.24615766634666816,0.17536257432118757,0.20629859240326187
846lAt9k0-jjM8TbBIRAmg,Terroni,Toronto,Yonge and St. Clair,43.6853479,-79.3930809,italian,2.0,3.0,0.3008080135862471,0.2901388706432232,0.09533780898064674,0.13855176658157273,0.17516354020831035
84ezTxVxTCmI65_UeYRJcA,G For Gelato and Pizza Bar,Toronto,Corktown,43.6513375031,-79.3718691068,italian,2.0,4.351351351351352,0.1384173108129,0.155913068874658,0.1540665656780953,0.1348869007018215,0.41671615393252487
86W-L1l70wL-7n0lSfoY-Q,Rush Hour,Toronto,,43.67115689999999,-79.4404087,italian,2.0,4.384615384615385,0.28147752276769383,0.005292875571576671,0.31631274072041043,0.1767487172633366,0.22016814367698254
8E6Cu9E0gCg6FgffWXl8mA,Bellini's Ristorante,Toronto,Yorkville,43.6707617,-79.3924323,italian,3.0,4.142857142857143,0.323162058048118,0.009655310143031785,0.4205613292836641,0.15079592741736744,0.0958253751078186
8UiPh7jaIqT_Dm8Qt_9frA,Annette Food Market,Toronto,The Junction,43.662542647799995,-79.4711279869,italian,3.0,4.085106382978723,0.2815652974278748,0.17315287490482248,0.2542025211883361,0.12601148913726187,0.16506781734170478
8ZaaUqIp_h__jUIoPfuVKA,Vaticano,Toronto,Yorkville,43.670751700000004,-79.390998,italian,3.0,3.6842105263157894,0.24360327597254972,0.048349414432447016,0.26460578253360467,0.2682010796897753,0.17524044737162348
8aPTNdySQ2ipjWtCJG0vnw,Public,Toronto,Little Italy,43.6553017,-79.41401450000001,italian,4.0,3.25,0.29517282137617834,0.0032843596158909543,0.311942112930473,0.13189734194849523,0.25770336412896244
8pGD3zt6HEL2xzaT3lqMFQ,Morso Me,Toronto,Niagara,43.6428929,-79.40845959999999,italian,2.0,4.555555555555555,0.11501477025297897,0.04712278025989193,0.233126702886551,0.3056194082570871,0.2991163383434911
8sQqyTN7PzxbKJ2Az4R5ig,MoTo Coffee and Snack Bar,Toronto,Little Portugal,43.6493896,-79.42629620000001,italian,,4.857142857142857,0.2252698292608315,0.0002448284297239545,0.31537812021885403,0.11132353407448013,0.34778368801611037
98V9R-7YT20KmcmJyMiJmg,Il Fornello,Toronto,Entertainment District,43.6475369,-79.3868705,italian,2.0,3.4074074074074074,0.30253237348827533,0.19997831934240637,0.1794544261704045,0.1606812152922433,0.15735366570667061
9Boahjn3QxlZnP2Aw_V1Rg,Sotto Sotto Restaurant,Toronto,The Annex,43.6735754912,-79.3963050842,italian,4.0,4.43859649122807,0.29787022531536056,0.01186228327653453,0.2202837284509342,0.21612091816959228,0.2538628447875784
9CYZaEbU3KjdLFMkKbUXVw,No One Writes To The Colonel,Toronto,Palmerston,43.6565011,-79.40847,italian,2.0,4.013333333333334,0.32123809985316937,0.004546226059915189,0.2719326378621632,0.0026475951921503334,0.39963544103260196
9Eghhu_LzEJgDKNgisf3rg,SCADDABUSH Italian Kitchen & Bar,Toronto,Downtown Core,43.6592789,-79.3824692,italian,2.0,3.8776119402985074,0.2638722246524812,0.08509720206804366,0.22980689187144954,0.263254399519311,0.15796928188871462
9HC5xHX8QE8VmGd-wCKEaA,Masseria,Toronto,,43.644420399999994,-79.3997431,italian,2.0,4.22,0.09407462217180326,0.5205258489404397,0.12566719417408304,0.08786493429500933,0.17186740041866472
9Jn6MJZMz2R6rcszqmXDqg,Luci Restaurant,Toronto,Etobicoke,43.62750379999999,-79.4983385,italian,3.0,4.277777777777778,0.35884925067515855,0.00914184804730516,0.3077788614576461,0.19008456154920256,0.13414547827068765
9LE2yGl23qxitNc9mkpbjA,Fresca Pizza & Pasta,Toronto,,43.6578089,-79.4017213,italian,1.0,4.1940298507462686,0.10018255132903571,0.49776002597666236,0.10311603015659233,0.0774732933165138,0.22146809922119576
9QgxFnsLqB1CHCA0F2bGzg,Hey Lucy,Toronto,,43.6640012,-79.3686058,italian,2.0,4.085714285714285,0.12640120933372456,0.33825201125070026,0.2461772493091479,0.09587694459575181,0.19329258551067544
9UX9_Vec2gxrrHvBjdzXgQ,Tappo Wine Bar & Restaurant,Toronto,Distillery District,43.6497181,-79.3593,italian,3.0,3.4166666666666665,0.43089507773104985,0.003528767577835001,0.2276778743535623,0.18515457078656303,0.15274370955098995
9XLH_grfIYKR7d5ZT9ZX_A,Melanie's Bistro & Patisserie,Toronto,The Danforth,43.6849185,-79.3172223,italian,2.0,4.177777777777778,0.21935331472975475,0.005731665355223909,0.25254027147613045,0.1315350874828176,0.3908396609560733
9xdVIIzHp12Zrox5aFaaHA,Pizzeria Defina,Toronto,Roncesvalles,43.64870560000001,-79.4498592,italian,2.0,4.423913043478261,0.15083202412642205,0.39438399801813573,0.21640341484532555,0.0843752861916999,0.15400527681841672
9ybyFfpTnecSJzg8cbtzRg,Piazzetta Trattoria,Toronto,,43.700506,-79.42842809999999,italian,4.0,3.3333333333333335,0.29739548521382353,0.12382851088570646,0.15937923513260596,0.2832341744117724,0.13616259435609165
A4aqz0pfgMX-votNbSZQDA,Modus Ristorante,Toronto,Financial District,43.647468599999996,-79.3841931,italian,3.0,3.533333333333333,0.368542804104216,0.006274897271400958,0.26779934903311686,0.1932935970799715,0.1640893525112946
A7waf6G3cvnLfAqKeLL8DA,Buca,Toronto,,43.6445122,-79.4003621,italian,3.0,3.97196261682243,0.28391014134367343,0.09768962364402915,0.22499759091696597,0.2955096873401366,0.09789295675519501
A8yIKHSI5LFYZ6_H8dZBcg,Chefydrew's International Cuisine,Toronto,,43.658124,-79.3724253,italian,2.0,4.2,0.40722528375751665,0.02604109996490806,0.15449972021386377,0.2399934574551455,0.17224043860856608
AKews7AVm9e0QroGWcvUMA,Defina Wood Fired,Toronto,The Junction,43.665823100000004,-79.4502269,italian,,4.0,0.3236981182226451,0.5154169892964262,0.11561949418161382,0.045265398299314946,0.0
AP9vhzzu0H-ZOxyEStlegQ,Classico Pizza & Pasta,Toronto,Swansea,43.6490049,-79.4846163,italian,2.0,3.7333333333333334,0.1571502163194615,0.30867220007901414,0.15607777503100978,0.10370539548173698,0.2743944130887776
AZB4eddtfB90vyoB1o5N2g,Pizza Hut,Toronto,,43.704883851400005,-79.4929611762,italian,2.0,4.0,0.18228484758628602,0.26220273892720003,0.2664197126679963,0.0,0.2890927008185177
AbL1xoa1-RVFZwtAk_oYuw,True Restaurant,Toronto,Yorkville,43.6711791,-79.3909506,italian,2.0,3.625,0.28481092393828056,0.059237122381774726,0.1051839826279468,0.1832291406390919,0.367538830412906
An5srxEwSWXdm0AvlYMLCQ,Arrabiata Trattoria,Toronto,Downtown Core,43.6676333,-79.38586240000001,italian,2.0,3.3333333333333335,0.27222154711699215,0.07318262643896518,0.2282531002544421,0.18609224672681682,0.2402504794627838
Avh4vPVXkYPcHEbRs1ZdBQ,Bello Bio,Toronto,Mount Pleasant and Davisville,43.7017624,-79.38749200000001,italian,2.0,4.5,0.11212747649812427,0.06359459865505276,0.2223844181858145,0.264719529113116,0.33717397754789247
AyuE2AyyKSZj97SNLAHM9w,Sbarro,Toronto,Downtown Core,43.655442462299995,-79.3816711035,italian,,1.75,0.2393506294599551,0.4182349831854168,0.026936700489615793,0.13992054860996722,0.17555713825504504
B44Cx8VNrRlrgdfXHuaq-w,Pastalicious,Toronto,Liberty Village,43.6383173,-79.41920859999999,italian,1.0,4.0,0.0395202732323819,0.025945922153609385,0.06965436951694345,0.6437400939775206,0.22113934111954467
B70iTJjcPkuYn8ouUewWgw,Gusto 101,Toronto,,43.6450021311,-79.400309337,italian,2.0,4.075555555555556,0.2270238107888792,0.0917103611388619,0.23667081036579432,0.23934823228359636,0.20524678542286784
B9pMUND3peh4fFtGmqA4LA,Balsamico Ristorante,Toronto,Mount Pleasant and Davisville,43.7015465,-79.3970115,italian,2.0,4.575757575757576,0.1632866556006573,0.10185886327825265,0.2590335669127599,0.29954983886345365,0.17627107534487652
BGK5N70oRV_o6RK7tDnlkw,Serra Ristorante,Toronto,The Annex,43.666292299999995,-79.4062449,italian,2.0,3.4,0.22504154332258214,0.005109179111295503,0.1534564968167321,0.24948636229096377,0.3669064184584264
B_eq-9vINgR0m1PwgUp5aw,The Annex Live,Toronto,,43.665449100000004,-79.4078992,italian,3.0,3.0,0.31245358212630975,0.0,0.017176453510029815,0.0,0.6703699643636605
BcK6nlLOs0RC3hxeVLaNdg,Brigantino's,Toronto,Greektown,43.677395600000004,-79.351462,italian,2.0,4.533333333333333,0.1469292924201749,0.010204348883609871,0.38529565285625483,0.3355443621019377,0.12202634373802254
BesWd1a_bPC9-dH0biQJpw,Diverso by Ferraro,Toronto,,43.6745536,-79.40898370000001,italian,2.0,4.090909090909091,0.10306320850077583,0.23263812321980962,0.27749364270171567,0.22339954464666906,0.16340548093102977
BgKZkKE0Xd4Lqd6QMSK14w,Li'ly Resto Lounge,Toronto,Bickford Park,43.6553076,-79.4164209,italian,2.0,2.7,0.3518188984559559,0.008931242342284026,0.14231249452955547,0.040270481245115494,0.4566668834270892
Bgf9B9d_2rDQHQvE9TnOZg,Raca Cafe and Bar,Toronto,Parkdale,43.638961,-79.444963,italian,2.0,4.3,0.2193342271266117,0.00556771298114501,0.20989114626053862,0.34771412800875284,0.21749278562295188
BlrvqjGanZvjlNsnIyvAXQ,Regina Pizzeria & Trattoria,Toronto,Bickford Park,43.654881,-79.420858,italian,2.0,4.447368421052632,0.18176562324969237,0.15633638825474888,0.24033177740550635,0.21867316431763392,0.20289304677241846
By2DQwaG2EiOxsuHnS8FoA,Vertical Restaurant & Bar,Toronto,Financial District,43.648636200000006,-79.3817439,american,3.0,4.0,0.32010543839880273,0.013127981709213902,0.2525836139357437,0.24271843375129018,0.17146453220494945
By2DQwaG2EiOxsuHnS8FoA,Vertical Restaurant & Bar,Toronto,Financial District,43.648636200000006,-79.3817439,italian,3.0,4.0,0.32010543839880273,0.013127981709213902,0.2525836139357437,0.24271843375129018,0.17146453220494945
C-1vkiwcWIuWCNYhwDLCow,Sandra's Italian Kitchen,Toronto,,43.781851200000006,-79.4917372,italian,2.0,4.571428571428571,0.07668447870936237,0.049834729896446384,0.32567361121946076,0.1303313848399246,0.41747579533480594
C16ogi6ASv-sQW3SGScmNQ,Tutti Matti Restaurant,Toronto,Entertainment District,43.647398100000004,-79.39392690000001,italian,3.0,3.9516129032258065,0.2579357572580973,0.009459603612627291,0.24217421259334462,0.341721083760552,0.1487093427753787
C3PVq7UpeHd6nz1_e-AtkA,Kalendar,Toronto,Palmerston,43.655787,-79.41173,italian,2.0,3.732824427480916,0.25690728040127697,0.06403270659723975,0.18277160499734577,0.14270747316744256,0.35358093483669517
C4sVRSWeWuXo0OtnXewsjQ,Fusaro's,Toronto,Corktown,43.653381,-79.3691186,italian,2.0,4.327868852459017,0.0918006823127007,0.07909757684314876,0.18765803444835302,0.30206926909226844,0.3393744373035291
C7bK6Sd0LcvH7SOAjQu3LA,Roma1090,Toronto,Dovercourt,43.6601487,-79.4341132,italian,2.0,3.875,0.26970382560638934,0.18573246152402242,0.20292195823858242,0.1583519542664384,0.1832898003645674
CKJnoUSWocdVIj6Fqbgm5g,The Red Tomato,Toronto,Entertainment District,43.646116299999996,-79.39079670000001,italian,2.0,3.522727272727273,0.29975850603578275,0.12430787004175105,0.17106212445137312,0.2580288586628845,0.1468426408082086
CNPnbJlMmCx08geOvDmH7A,Blu restaurante,Toronto,Yorkville,43.6716078105,-79.3884385005,italian,3.0,4.083333333333333,0.3117371849560033,0.007843907436545672,0.3511477736026984,0.1960278301588991,0.13324330384585373
CUGswyxGdkcd4IE1oHc80A,Bar Vespa,Toronto,Liberty Village,43.638436,-79.417423,italian,2.0,3.3333333333333335,0.3334708830503731,0.16042090272138024,0.1897978818382148,0.1410689401622939,0.17524139222773807
CVEFqoWc2azMDsyEesMSZQ,850 Degrees Pizzeria,Toronto,High Park,43.6561769,-79.4537389,italian,2.0,4.142857142857143,0.19085682086075365,0.4110811142289053,0.15771941387644461,0.11998155975988133,0.1203610912740152
CZY3743GpOOhdDJu6UmPBA,Bar Buca,Toronto,,43.6439229362,-79.39984038520001,italian,2.0,4.194871794871795,0.2712422685089737,0.017022452949767307,0.2049020856958938,0.16982315312412183,0.33701003972124344
CnHMPB1BZL7Nx2OyCsSAVQ,Harvest Cafe & Fine Foods,Toronto,The Beach,43.6684274,-79.3072943,italian,2.0,3.6666666666666665,0.09749653130404425,0.02067536129323349,0.11670287416976001,0.13615870149561862,0.6289665317373435
Ct5bB61mRmHUdXhqL3rm0A,Danforth Sandwich,Toronto,The Danforth,43.685900200000006,-79.3118115,italian,1.0,4.6,0.02335830629911068,0.06054100771971986,0.08297675651392859,0.45335557794638615,0.3797683515208547
D1lAVtlav4atQTJnIvtcpw,Taverna Mercatto,Toronto,,43.6426722096,-79.3827601467,italian,2.0,3.919642857142857,0.24696716543168742,0.10165482435840181,0.21503485929396757,0.27296127201264647,0.16338187890329667
D5XAErxJj5VbQjaQypb4Ig,Louis Souvlaki & Grill,Toronto,Scarborough,43.782833000000004,-79.169624,italian,2.0,4.285714285714286,0.10477274737576757,0.047997698626264344,0.19546053803606833,0.21331000383841733,0.43845901212348243
D9LMDxJTbMIP5drSgWp1SQ,Pizza Pizza,Toronto,Church-Wellesley Village,43.6618689,-79.3830445,italian,2.0,3.0,0.18043338562276068,0.5996825659286217,0.11601270002017589,0.020076977971156332,0.08379437045728542
DC3B2efrhw1c6c79BBgYjA,Giovanna Trattoria,Toronto,Little Italy,43.65487,-79.4151228,italian,2.0,2.5,0.2841535167870435,0.09736718805649941,0.2029225530302122,0.102485957602929,0.3130707845233158
DHP5gORcJBlpUacP33NjpA,Lupara Kitchen Table,Toronto,West Queen West,43.6426353775,-79.4256115705,italian,,5.0,0.19157736322033192,0.0,0.4479578532268403,0.0,0.3604647835528278
DitQU2Y-WONolisjxP-2nQ,Pizza Pizza,Toronto,Yorkville,43.6711886,-79.3874048,italian,1.0,2.2,0.18372114421544325,0.7501076290515903,0.00849515694106413,0.0,0.05767606979190232
Dnq4w6ajMifZFFTIR5cGxw,Dante's Inferno Paninoteca,Toronto,Wychwood,43.6745606,-79.4316635,italian,2.0,4.636363636363637,0.07640828670749539,0.5017180839145315,0.13998519805940549,0.1196259039331757,0.16226252738539204
DvXpWBz5_-hZQuvu-RnSwQ,The Food Shop,Toronto,Kensington Market,43.654062200000006,-79.40147859999999,italian,2.0,4.0,0.08593414240350618,0.14813066932751995,0.3970831761448707,0.189517886417429,0.17933412570667412
E4wuEcTEmuq7kvgSbTDLFQ,Pizza Pizza,Toronto,Scarborough,43.798361799999995,-79.31846340000001,italian,1.0,3.0,0.11660974545822092,0.6894609218016909,0.05901180583118543,0.0460396340849883,0.08887789282391431
E9b73ETPw0VYUJ2_YSJJdQ,Pizza Rustica,Toronto,Entertainment District,43.645087700000005,-79.391932,italian,2.0,3.4166666666666665,0.19563816693516237,0.3635371449114935,0.15761261852734199,0.12411813120858156,0.15909393841742048
EDqCEAGXVGCH4FJXgqtjqg,Pizza Pizza,Toronto,Dufferin Grove,43.661054,-79.429089,italian,1.0,3.2,0.16242139173961997,0.5378467066816531,0.06989803763916207,0.04961649651456516,0.18021736742499975
EQ1cOH_mr5VyHGjhgz_vDA,Centro Trattoria & Formaggio,Toronto,Corso Italia,43.677817600000004,-79.4449243,italian,1.0,3.75,0.1958432434899604,0.015569926302681631,0.12815571291240327,0.5240893627043849,0.13634175459056974
ERnG-1q3igX3VSgm5uLZ6A,Pizza e Pazzi,Toronto,Corso Italia,43.677983000000005,-79.443887,italian,2.0,3.754385964912281,0.18525517141070025,0.3924721408964812,0.1669701021148625,0.13189768283331493,0.12340490274464104
ES8JP18I4sz72HEAWjk_KQ,Vero Trattoria,Toronto,Mount Pleasant and Davisville,43.7056914,-79.375337,italian,3.0,3.3076923076923075,0.30568723781815293,0.09098450504263322,0.1874146904924692,0.18372952331436787,0.23218404333237677
EY4xsGDe0euyusOfAb3Cwg,The Fresh Italian Eatery,Toronto,Downtown Core,43.6542188964,-79.3907314539,italian,1.0,4.071428571428571,0.11784655230078338,0.07638121170897036,0.17156466109444432,0.23050712440200954,0.40370045049379233
Ehl4wwFZnB6WhiHt-0tIwA,Kiwe Kitchen,Toronto,,43.6443463865,-79.40018612729999,american,3.0,3.125,0.31889649325841546,0.044407171891871496,0.26561768980796807,0.057672047628973475,0.31340659741277155
Ehl4wwFZnB6WhiHt-0tIwA,Kiwe Kitchen,Toronto,,43.6443463865,-79.40018612729999,italian,3.0,3.125,0.31889649325841546,0.044407171891871496,0.26561768980796807,0.057672047628973475,0.31340659741277155
ElFjivhz41XfFiOogtTCvg,Vino Rosso Bar & Restaurant,Toronto,Discovery District,43.665223,-79.3874872,italian,2.0,2.5,0.46612519212655706,0.0018573868686163652,0.11240805862067775,0.26576518490849965,0.1538441774756491
Eo4s6CmPpEcXCkfg9Zk_EA,Pizza Hut,Toronto,Summer Hill,43.677842299999995,-79.39024870000001,italian,,3.0,0.14478153942700045,0.7633830148843469,0.017852894083169937,0.04596171363845886,0.028020837967023805
FDxnnImJ-Q0CXRwGVJ1gig,Green Eggplant Restaurant,Toronto,,43.7036821,-79.4135891,italian,3.0,4.125,0.22320003758258825,0.01782070937550484,0.11802680089926837,0.2636748216595594,0.37727763048307916
FJMMPL3pxAPYGEPB0Hwlhw,TOCA,Toronto,Entertainment District,43.6454311773,-79.38705858899999,italian,4.0,4.096153846153846,0.3334165465857618,0.015831300006517,0.25226747784466363,0.18700652612847418,0.21147814943458318
FOzChvW-f6mp0BGbrS-ywQ,Il Ponte Cucina Italiana,Toronto,Riverdale,43.657894399999996,-79.35292209999999,italian,3.0,4.166666666666667,0.23394917732496212,0.10610979373464405,0.2908931556439198,0.2586244108279476,0.11042346246852644
FUqvrauxIP8bcI2aVeoXdg,Kit Kat Italian Bar & Grill,Toronto,Entertainment District,43.646353399999995,-79.3901407,italian,2.0,3.972027972027972,0.2559789593723396,0.012643775071097207,0.2750332735363126,0.2519893003585643,0.20435469166168646
FYWbBFMAoIKuQlbUcBa9Zw,Villa Restaurant,Toronto,Bloor-West Village,43.650636299999995,-79.4786412,italian,3.0,3.1379310344827585,0.27065502249280393,0.07510042835180095,0.1762438340429384,0.26229837842066894,0.21570233669178773
Fb4n3CDCn0pdSUz9FO7kDw,The Good Son Pizza,Toronto,Financial District,43.650291100000004,-79.3839517,italian,2.0,4.5,0.14632686102028314,0.6500596969651818,0.08155134792832307,0.024481302014674973,0.09758079207153691
FeC5DeqINOSr37y5TABnKA,Parkette,Toronto,West Queen West,43.6451986,-79.4143964,italian,2.0,3.5217391304347827,0.30469674189329665,0.09045754000889648,0.15220510411367033,0.18366337830077392,0.2689772356833627
FfF8XGFf8_BSlWSjIgqeQg,Scaddabush Italian Kitchen & Bar,Toronto,Scarborough,43.7777285062,-79.2545693769,italian,2.0,3.48,0.27731612239180226,0.08876312262703026,0.17712427154683574,0.307213937433507,0.14958254600082477
Fihzq3H6od0AP2WFLCE5yQ,Frascati,Toronto,Downtown Core,43.6574995,-79.3823435,italian,2.0,3.875,0.2232102811786447,0.0023556536309318863,0.34350734804875344,0.25272601742554507,0.1782006997161249
FpkUmjM8fsrZyPH-okn2qQ,La Luce Ristorante,Toronto,,43.772923799999994,-79.5307054,italian,2.0,4.555555555555555,0.30878233614757755,0.005978695145269348,0.2820582228299149,0.22545830009813994,0.17772244577909835
FySLcpQNaDK_wrKmZA02cw,Locus144,Toronto,Liberty Village,43.6382143,-79.4178781,italian,2.0,4.6923076923076925,0.25241967662442055,0.01833187841832511,0.3880829903142907,0.027096842307399335,0.3140686123355643
FygWGVRGu9iBdoNU5f2rBw,Francobollo,Toronto,,43.734429299999995,-79.4195579,italian,4.0,4.3125,0.2977564952266061,0.004060378223302072,0.4345554765265378,0.1646498498330698,0.09897780019048419
G3rk0dDROzpDdTugsnSDTw,Via Vai Pizzeria & Wine Bar,Toronto,Discovery District,43.661704799999995,-79.3862897,italian,2.0,3.3,0.30507426016974104,0.19801010874584032,0.19061972972872726,0.12729632403323674,0.17899957732245447
G7FRxL25QFiuVxUeTmKXjQ,Paul's Tomato Pie,Toronto,,43.7061727,-79.44241640000001,italian,,4.0,0.14243050888623798,0.47809207844375307,0.09719524448087749,0.13663665052339236,0.1456455176657392
GCYoo69k-vI-KFF3rsFuTQ,Sorella Toronto,Toronto,The Junction,43.6651442621,-79.461493873,italian,1.0,4.875,0.08817853007023284,0.07282571704066826,0.16579507070136984,0.26497036061534945,0.4082303215723796
GIvm7Uvr0hq1YzoBGtNnUg,Hero Certified Pizza,Toronto,,43.674172766800005,-79.4698733836,italian,,4.4,0.05560861342231428,0.5607760225124744,0.05310741726939394,0.048360578489294356,0.2821473683065231
GjEbrETDJf0KPHQWvWkoqA,Red Sauce,Toronto,Palmerston,43.6555203,-79.41410690000001,italian,2.0,4.2,0.13164991096264383,0.03729596023948338,0.13857206647180417,0.3752856117537768,0.31719645057229184
Grr2wJ3nYD_7qUyespDglA,Corrado's,Toronto,Entertainment District,43.6482939644,-79.3906370695,italian,1.0,4.523809523809524,0.11449084129733715,0.06957767139913124,0.2345261395355733,0.24779638119458647,0.33360896657337175
H9Ht6OgTMl3PZoX60OzCew,Domino's Pizza,Toronto,New Toronto,43.601733,-79.5008951,italian,1.0,3.8333333333333335,0.06992737124832905,0.7364825937970361,0.08110452184935542,0.014184907830369858,0.09830060527490954
Huo1lJmVkdqvFuLtA74Nhw,Casa Di Giorgios,Toronto,Upper Beach,43.66684,-79.3151974,italian,2.0,4.191489361702128,0.13597660756489344,0.21872904830448994,0.21580356658645977,0.20801420859050138,0.22147656895365547
I1Y_Nal9YsnSPvvXb47Ofw,Vittorio's On Avenue,Toronto,,43.6739721,-79.3960984,italian,3.0,3.111111111111111,0.28263826126851677,0.005021519746698678,0.1833206068413008,0.2936245558715137,0.23539505627197002
IKhwrMO42BecLZU4Pdwulw,Big Papa Trattoria,Toronto,Etobicoke,43.6479035,-79.5096724,italian,2.0,3.2,0.1692749643790755,0.056805086503146876,0.061325090459177556,0.23141162096980716,0.48118323768879295
IN8BHY7zkhjUxUh4qnbrHg,Camarra's Pizzeria & Restaurant,Toronto,,43.7083419,-79.4530944,italian,2.0,3.4285714285714284,0.13739021280019265,0.5474256935692446,0.16997580788288302,0.05553026524365433,0.0896780205040254
IQ3esF7MvIOCbeVetW51Ng,Harvest Kitchen,Toronto,,43.662723,-79.4043569,italian,2.0,3.879432624113475,0.27213915779674747,0.010811885948437806,0.23327700817355884,0.12470250366669162,0.3590694444145642
IYeVJn_RUfyjxfRpD7QzMw,Sugo Trattoria,Toronto,Church-Wellesley Village,43.6668063,-79.3814013,italian,2.0,2.7,0.28515771528363204,0.10488275275494423,0.25191215100840536,0.18228245734609502,0.17576492360692342
IZ0c8VGiDeURttERwuxuqg,ABBIOCCO,Toronto,Little Italy,43.6552816,-79.413522,italian,2.0,3.0,0.5893257860692384,0.0,0.17291134511323508,0.019118233897918873,0.21864463491960773
Idk-QTyUZq9w0ALh5cyvrw,Pizza Pizza,Toronto,Queen Street West,43.6503226,-79.3900762,italian,1.0,3.0,0.09971889509983844,0.6898345551067554,0.08181965498755432,0.06157097463073832,0.06705592017511355
Ik3CEeFyMFDnqrhc30NubQ,The Mad Italian,Toronto,Greektown,43.678381,-79.34695699999999,italian,2.0,4.5,0.12033103031095382,0.013944197444411739,0.21419863705543069,0.20837761960331883,0.443148515585885
IwMhD-JhfhEY_nk963h7Vw,Trattoria Bacio,Toronto,Yorkville,43.6703318,-79.3906913,italian,2.0,3.6,0.16054714277544016,0.1411014934632408,0.09937403044446524,0.057488527149691895,0.5414888061671619
J0ET9_Zvh10E02BrEN74iw,Fortuna Ristorante & Lounge,Toronto,Yorkville,43.671077000000004,-79.3879681,italian,3.0,3.8,0.3064713075579235,0.015357277047640956,0.2841575161126394,0.2666632787325105,0.12735062054928561
J4er8Ieb_vHaH4C9wC47qA,Ceno,Toronto,The Annex,43.673959499999995,-79.3961214,italian,4.0,3.75,0.4159003825846456,0.007796379510504732,0.34273658501533916,0.12371993866744667,0.10984671422206387
JG26f5Ppxvmz1EP6nh2WkQ,Cafe Bar Pasta,Toronto,Brockton Village,43.649959499999994,-79.4347325,italian,2.0,4.523809523809524,0.20047305027085235,0.012759345789353005,0.3461712474608362,0.3255483832313169,0.1150479732476416
JH3zKlfslbSVeA_KsAaRRQ,Splendido Restaurant,Toronto,,43.662991299999995,-79.40288050000001,italian,4.0,4.409090909090909,0.42278346844427095,0.009534763471770208,0.25442426730550505,0.18502607031177262,0.12823143046668134
JK_DiDwbl7HX5OhCAh3h4g,Cafe Diplomatico Restaurant & Pizzeria,Toronto,Little Italy,43.655255,-79.413732,italian,2.0,3.5555555555555554,0.2103434274814542,0.14242059409859442,0.207296595214567,0.10880608706667917,0.3311332961387052
JOoblYsQjFT-47tkt6om0A,7 West Cafe,Toronto,Downtown Core,43.6685661933,-79.38652575020001,italian,2.0,3.7718631178707223,0.26911494901221844,0.040647155639134104,0.18416113373958237,0.09995224704608457,0.4061245145629804
JZB9Zjex7mlJNu7lyJ08Qw,Domino's Pizza,Toronto,Brockton Village,43.650107533,-79.4377351552,italian,1.0,4.0,0.0,0.24680957260008474,0.3067042388659733,0.0,0.44648618853394184
JknT98CaJAfBPg6cxBn3iw,Pizzeria Oro di Napoli,Toronto,Etobicoke,43.617664700000006,-79.4871532,italian,2.0,4.5,0.12950686739789102,0.35557126639454556,0.24750923452463353,0.11420856957561609,0.15320406210731383
KBQcNy9k9G8_a5WtrVGH8w,One Of A Kind,Toronto,Trinity Bellwoods,43.6462375,-79.4101836,italian,2.0,3.625,0.24162020097641657,0.021000312186841934,0.13368467664355335,0.3147662793853366,0.28892853080785147
KEyjG-6G4Dbo3p1Wmnxs4Q,Vannis Restaurant,Toronto,,43.6819924,-79.42553149999999,italian,2.0,3.6666666666666665,0.1787942102642287,0.19210554933616864,0.19327903580357653,0.2064326882758283,0.22938851632019788
KKUfGvyBDVqdZXXqS3uDrw,Lakvino Ristorante,Toronto,The Annex,43.6655406,-79.409162,italian,2.0,4.0,0.23762956477670208,0.05576400728690363,0.20471178582862334,0.3614205066305701,0.14047413547720083
KVpvE6pOPM9KMvak4HFsNg,Pizzeria Libretto,Toronto,Ossington Strip,43.64900170000001,-79.4203433,italian,2.0,4.073903002309469,0.15847371404062646,0.49265119213235037,0.14927768688292758,0.07394284212503444,0.1256545648190614
KcIalceIg6PSPONvLlI4-w,Sud Forno,Toronto,Trinity Bellwoods,43.6463029979,-79.4090037202,italian,2.0,4.149122807017544,0.16858471031472805,0.1797585446945732,0.16692085169490462,0.14639094551370482,0.3383449477820896
Kdt5XrqARBMIH694fgnyuA,Amicos Pizza Ristorante,Toronto,Parkdale,43.639388000000004,-79.44308199999999,italian,2.0,4.166666666666667,0.12814460088047655,0.33669965846100375,0.15495808512545045,0.15235076762098237,0.22784688791208688
KkRUprt06Jg8ANLIQLPijQ,La Cascina,Toronto,,43.7233315,-79.416353,italian,3.0,4.5,0.28795275461394054,0.011160774683889187,0.2197812757408726,0.29942390444236033,0.1816812905189373
KtSEqZbGV1WHgOgtSMEZFQ,Capocaccia Trattoria,Toronto,Yonge and St. Clair,43.6858784,-79.393189,italian,2.0,3.9545454545454546,0.24167800491849886,0.15504204665690738,0.2348986443428006,0.17395902984072836,0.19442227424106484
KuxDPl6UYNLxFChPm0_MNw,Brownstone Bistro,Toronto,Church-Wellesley Village,43.6667137,-79.3851366,italian,2.0,3.65625,0.35014183634562324,0.02977858846007122,0.226013937757651,0.13320336378304573,0.260862273653609
L3R7y3_tUKQlM9kor4-Ccw,Jamie's Italian,Toronto,,43.7266461513,-79.4530578107,italian,2.0,3.232283464566929,0.34059256443591807,0.07838825123412377,0.14119933224526793,0.30749722683677294,0.13232262524791702
L5Vpsyc48MrtJjFHT1UPAg,Amano,Toronto,,43.6453166,-79.3804073,italian,2.0,3.933333333333333,0.19376240980881934,0.0015715166837158236,0.15213743965761894,0.5082862577696007,0.14424237608024523
L8W83-wPFLMs457cAu60Eg,Campo,Toronto,,43.655117974899994,-79.4869590168,italian,2.0,4.5,0.22163387023239325,0.009526307021386723,0.3525141137162641,0.19390640368474046,0.22241930534521553
LFxMt7Oi0vdsmZ3h_UBV-g,Nodo Restaurant,Toronto,,43.6810110637,-79.4297991693,italian,2.0,4.25,0.26061830122562196,0.13399166694896106,0.2040476050094272,0.24085597869186762,0.16048644812412216
LOEZ8zDGly7s-laA1OBIEw,Bricco Wine Bar,Toronto,The Junction,43.6654815,-79.4709996,italian,3.0,3.975,0.3513943686203428,0.01515226166455265,0.29655703078889284,0.15887085531468528,0.1780254836115264
L_thK7r3K_h5M4tV7amEKQ,Honey B Hives Restaurant,Toronto,Scarborough,43.8229818717,-79.2479152131,italian,1.0,3.821138211382114,0.21774481697318374,0.008688882084357535,0.15620823320128616,0.15171999874938888,0.4656380689917838
LzYy9DdprXyI2zXNSP267g,East Side Mario's,Toronto,,43.785618335,-79.47604921850001,american,2.0,2.7857142857142856,0.34511446711543364,0.029437407191147485,0.13004406231943702,0.3136319140082206,0.1817721493657613
LzYy9DdprXyI2zXNSP267g,East Side Mario's,Toronto,,43.785618335,-79.47604921850001,italian,2.0,2.7857142857142856,0.34511446711543364,0.029437407191147485,0.13004406231943702,0.3136319140082206,0.1817721493657613
Lzj-_QdzL2bLeHd_bC88Fg,Quanto Basta,Toronto,Summer Hill,43.6787505,-79.39055450000001,italian,2.0,3.6666666666666665,0.22456446210919556,0.005512068815807986,0.3169253261159337,0.28179918303888335,0.17119895992017947
M7gB_MsmKwjSO8pk1rQ00w,Cucinetta,Toronto,,43.774239200000004,-79.50143359999998,italian,1.0,3.0,0.21522450039455457,0.1917267018898637,0.03659664277785838,0.26719634293099687,0.2892558120067264
M8jzd1hpwI8p0JqcBCINZw,Alice Fazooli's,Toronto,Entertainment District,43.6477016,-79.3908876,italian,2.0,3.0,0.43993775162900534,0.048650802933782454,0.19474889367744455,0.10879382597537508,0.2078687257843925
MDjIylNU6CYq9hR3Qe6hVA,Scaccia Restaurant,Toronto,Yorkville,43.6695816,-79.3885728,italian,2.0,3.2903225806451615,0.19159372418019205,0.07372400575833413,0.1484494281397689,0.24356265849070205,0.3426701834310028
MLQeuiL9rqOq_rDKGEcU0A,F'Amelia,Toronto,Cabbagetown,43.6674629,-79.36859399999999,italian,3.0,3.6436781609195403,0.2411816268826551,0.19074731180873594,0.24195478812865467,0.17422001605313187,0.15189625712682223
MPhhbu9HfDK0OjdtdFN1BA,Pizza Pizza,Toronto,Cabbagetown,43.667983899999996,-79.36981180000001,italian,1.0,5.0,0.020013527926975166,0.6678563540116733,0.3121301180613516,0.0,0.0
MUjlAtBNJR--7ai5pITbMg,Bar Mercurio,Toronto,The Annex,43.667481770600006,-79.4006463811,italian,3.0,3.5714285714285716,0.2994306358957247,0.07931033254680618,0.25288560135447163,0.15441012930017592,0.21396330090282145
MWTiyj9BY21GSOwYqLkpcQ,Bravi Ristorante,Toronto,St. Lawrence,43.6484769,-79.3749505,italian,3.0,3.6666666666666665,0.22232800504990627,0.00606078504569311,0.39146746758690304,0.20153387346174795,0.1786098688557497
MWe2RCV1PuH1qoMAELAqxA,San Francesco Foods - Queen,Toronto,Queen Street West,43.647320799999996,-79.4023734,italian,2.0,3.9583333333333335,0.21010637385853095,0.10630570332424837,0.12845762223444795,0.23981726610912676,0.31531303447364595
MYCrFbGo2-ZiEYqpwiKsrw,Cellar Door,Toronto,New Toronto,43.600101200000005,-79.507713,italian,2.0,4.157894736842105,0.18281606269225795,0.281534541415125,0.2453669052348415,0.16326466615947,0.1270178244983055
Mr-r_r8qCnr9LMnazT0rhA,Teatro Restaurant,Toronto,Little Italy,43.6559783,-79.41009240000001,italian,2.0,2.6666666666666665,0.3324774919105576,0.005250027912648662,0.13085663795073985,0.09181274987351017,0.4396030923525438
MrjrxvceYEo0QPobfkp19w,Nevada Restaurant,Toronto,The Beach,43.6695761,-79.3016866,italian,,2.5,0.17471752865434223,0.001456131871570504,0.026359047218497043,0.7071225849220639,0.09034470733352633
MzDdDpDXFyqsWTtfXrZ15g,Pizza Pizza,Toronto,Riverdale,43.6588117,-79.35117690000001,italian,2.0,4.5,0.07996403127707478,0.30539211599079413,0.3742964575317355,0.0,0.24034739520039555
N-U0o7hIKy3Z6KY_O4RuPg,PICEA997,Toronto,Dovercourt,43.6698988,-79.43154859999999,italian,2.0,3.3181818181818183,0.23108907527972694,0.3485392274360622,0.20841142786678254,0.08879237247501798,0.12316789694241033
N20Z6CmL1ZnCHYd2aojRyQ,Grano Restaurant,Toronto,Mount Pleasant and Davisville,43.7017236,-79.3970147,italian,2.0,3.9166666666666665,0.24431461407644506,0.015164882251432704,0.2999815783874311,0.279509536490159,0.16102938879453213
N8bCOvrGH69jD3-CRc6Fpw,Ultimate Cafe,Toronto,Entertainment District,43.6464876,-79.3900847,italian,2.0,3.0,0.3484851162917416,0.005146680027347195,0.1115476949384903,0.13062982107066662,0.40419068767175426
NBMCSTtayMJJisWSZ6WuwA,Obik√† Mozzarella Bar,Toronto,Downtown Core,43.6472077,-79.3793812,italian,3.0,3.0,0.26233839432995115,0.1599620932546136,0.12765011098491372,0.2961240514309468,0.15392534999957475
NFaVXGofY855SyGs6D3_-Q,Tosto Quickfire Pizza Pasta,Toronto,,43.647680799999996,-79.3967361,italian,2.0,3.909090909090909,0.10771428003901012,0.22017644721593613,0.13263110310506265,0.3854154276918182,0.1540627419481729
NKoI09Z35Gwn5gdfi5HWNg,Simpatico Cibo e Vino,Toronto,Yonge and Eglinton,43.7044927,-79.4070672,italian,2.0,4.5,0.07588591765308933,0.23908856875788181,0.13543225464065686,0.4524655783887336,0.09712768055963839
NOKaVqvi4hI8RgGjFCFIAg,San Francesco Foods - Clinton,Toronto,Little Italy,43.65402279999999,-79.41356390000001,italian,1.0,4.46875,0.09625783776551419,0.10074886590668856,0.09823478239336143,0.23727854371531107,0.4674799702191248
NPQE0JvwjmFca83ZuAXutQ,Stazione,Toronto,Wychwood,43.6807093,-79.4307402,italian,2.0,3.7142857142857144,0.29683182735524916,0.011357026330980456,0.25709072292921703,0.18713606108336692,0.2475843623011865
NvFpFlu-aHzUOtaA0yc-YA,Modo Mio Italian Bistro,Toronto,,43.7336548,-79.41927700000001,italian,2.0,4.45945945945946,0.13995547361473698,0.14979276598556662,0.2728197013106353,0.2796434761612154,0.1577885829278457
O5_CKNQOmtRHY_CjOB6XYA,ViVetha Bistro,Toronto,The Beach,43.6736249,-79.2821106,american,2.0,3.9019607843137254,0.20229870787656118,0.008100986244020473,0.21073287822612286,0.19696480446438555,0.38190262318890983
O5_CKNQOmtRHY_CjOB6XYA,ViVetha Bistro,Toronto,The Beach,43.6736249,-79.2821106,italian,2.0,3.9019607843137254,0.20229870787656118,0.008100986244020473,0.21073287822612286,0.19696480446438555,0.38190262318890983
OBG1j517k7aZRNC1HAL0TA,Fabbrica,Toronto,,43.7366198,-79.3446503,italian,3.0,3.586206896551724,0.27989215748177954,0.1622063633402524,0.17342735085083294,0.22960440964179307,0.15486971868534205
OIdOJaNS8M624F58XGV3PQ,Pizzeria Libretto Danforth,Toronto,Greektown,43.6785541,-79.3475845,italian,2.0,4.129032258064516,0.13481191964240766,0.46963109621886345,0.18022928675355812,0.1045793146001845,0.11074838278498639
OJ6zfenoK-eBNI7vvNrOsg,Fieramosca,Toronto,The Annex,43.669540600000005,-79.3973027,italian,3.0,4.463768115942029,0.2298347403782682,0.020068026974399262,0.29561268471723834,0.22977915012529251,0.2247053978048015
OlklbRrfBIlc6obPtZPF3w,CANO Restaurant,Toronto,,43.6786856,-79.440601,italian,2.0,4.125,0.17532049036280853,0.07262535866838353,0.31964205924143185,0.2953363631561883,0.13707572857118783
OqYZdBUgmId7tZMAVpiFCw,Biagio Ristorante,Toronto,St. Lawrence,43.650184499999995,-79.37225620000001,italian,3.0,4.16,0.2574675287562409,0.010756547819780218,0.344207764253017,0.20626775088008148,0.18130040829088032
Orgm9nmcClxnAUva4nOKyA,Hot House Restaurant & Bar,Toronto,St. Lawrence,43.648847496,-79.37368318,italian,2.0,3.7245762711864407,0.291825196729592,0.03456206202691133,0.2053439317482666,0.1322772352027268,0.3359915742925038
OyiOg9GYKzHI19EbnWqL8A,Hey Lucy,Toronto,The Annex,43.6658099,-79.408497,italian,2.0,3.15625,0.29322091564115554,0.14353626507307324,0.18123964718088037,0.09784871896519017,0.28415445313970067
P0-oxpGOTqRYbXNUye0IFw,Pasta Pantry,Toronto,Mount Pleasant and Davisville,43.700739899999995,-79.3969147,italian,2.0,4.9375,0.04578401026742682,0.0077970741992411064,0.16523132506828161,0.6460699594503662,0.13511763101468427
PPrE3wc9hihGLQOX0Y6nvg,Black Skirt,Toronto,Dufferin Grove,43.6534635,-79.4276819,italian,2.0,3.8333333333333335,0.24117908557168055,0.01692180526111222,0.19161380940835776,0.39527699093915286,0.15500830881969663
PUDtJu2bFTvIl1_WhyUIXQ,Vesuvio Pizzeria & Spaghetti House,Toronto,The Junction,43.66558679999999,-79.4698238,italian,2.0,3.9655172413793105,0.13472049730273358,0.4175808872450439,0.1442492081297313,0.13005972299565263,0.17338968432683854
PXN0l42g6IWp18NGJ7yn5w,Hey Lucy,Toronto,Entertainment District,43.6463276,-79.3901316,italian,2.0,3.7655172413793103,0.26581676884889,0.131157624952462,0.22036786308213088,0.13083926130488366,0.2518184818116334
PhdbEJEHGLtKs-nSFM3Kxg,Black Skirt,Toronto,Church-Wellesley Village,43.6686389,-79.3857064,italian,3.0,2.5,0.4150979022689318,0.007567120248949071,0.0,0.43867035341621236,0.13866462406590677
PmLFk1s8pPVNXChqETM4MA,Coco Lezzone,Toronto,The Annex,43.6739132,-79.3962418,italian,3.0,4.076923076923077,0.2934242810864633,0.052627194469453444,0.2841352171294304,0.13679285124057008,0.23302045607408287
Pueu_ofuGNpX2dRf-GHt_A,Forget About It,Toronto,Entertainment District,43.6461973301,-79.3911541475,italian,2.0,3.84375,0.290101035663712,0.06209306826623305,0.26718652540509863,0.17700124748703086,0.2036181231779255
Px3xYvClWb-wSjyERBFWNw,Pizza Roma & Restaurant,Toronto,Dovercourt,43.6601487,-79.4341132,italian,2.0,3.5,0.31028142430464795,0.11065215298798792,0.20643032637915745,0.12920730050435686,0.24342879582384977
Q2xmQsHQHNkZsWoXHZ8l5A,Acqua Dolce,Toronto,,43.6309217,-79.4227667,italian,2.0,3.8,0.2243708207670704,0.05100383289972025,0.4139537545380412,0.13929726892630953,0.17137432286885873
Q4RSmF0s-AkaegrLFCLEbg,Donatello Restaurant,Toronto,Downtown Core,43.657425,-79.38347399999999,italian,3.0,4.054054054054054,0.294941188000338,0.008310807941895057,0.31781420101780933,0.2372654959894222,0.1416683070505354
Q6Lp73mfUnb7_DVkbzijYA,Bocca On Baldwin,Toronto,Downtown Core,43.656202,-79.3934155,italian,2.0,3.5185185185185186,0.24306594194080167,0.06454275093921687,0.26145048584207725,0.1860853569832271,0.24485546429467706
QGUeajuwtOSegh7JbrbuXA,Church Aperitivo Bar,Toronto,Beaconsfield Village,43.6435217,-79.4223131,italian,3.0,3.7419354838709675,0.3299950767836613,0.014315328078610646,0.22380449725047377,0.1959825451130094,0.23590255277424496
Qf7x_9ATlcm-thjdxOWJ4A,Viccino Pizzeria,Toronto,The Beach,43.6691396,-79.30398840000001,italian,2.0,3.8,0.16223918792292819,0.45525466451455765,0.17581405773811248,0.11356902767807431,0.09312306214632733
Qqm3yVcqTbC1IOKu0TG2nQ,Dal Moro's Fresh Pasta To Go,Toronto,Church-Wellesley Village,43.6667864,-79.3851655,italian,2.0,4.012987012987013,0.06859840171434066,0.015006462211931996,0.09417593930673486,0.6534218291684354,0.1687973675985573
R6ogSY7AA-gl_81PhdGJaw,Padella,Toronto,,43.734601899999994,-79.4195836,italian,,4.333333333333333,0.2401731250364085,0.08219633058830514,0.2608924492519081,0.35174514935311824,0.0649929457702601
RFbMVekR8lU9tPJ8sWrwHg,Tavolino,Toronto,Mount Pleasant and Davisville,43.7042291,-79.38822990000001,italian,2.0,4.533333333333333,0.11878596751590899,0.03651756596067958,0.5594608606809739,0.17794543131185175,0.10729017453058579
RHcfJ-l69RbBE4viU0-jwQ,Uno Mustachio,Toronto,St. Lawrence,43.6490516,-79.3717741,italian,1.0,3.8703703703703702,0.11094816264821421,0.043553577690129505,0.04040161741421592,0.3672811709086211,0.43781547133881915
RXyM7VrCiEFthJxQ4bGmBg,Sambucas On Church,Toronto,Church-Wellesley Village,43.665132,-79.38032270000001,italian,2.0,3.727272727272727,0.3403055216058164,0.033948163771933326,0.22952165306582784,0.2151987507311075,0.18102591082531488
S24zkRnTBxIbXJ1kBRXCtw,Mamma's Pizza,Toronto,Greektown,43.677971,-79.34890990000001,italian,1.0,4.0,0.04984337461506389,0.8834919473913786,0.025774819491708786,0.04088985850184852,0.0
S2eGygYWQB2yyb3-neKTlw,7 Numbers Danforth,Toronto,Riverdale,43.67695870000001,-79.3538463,italian,2.0,3.8285714285714287,0.29182674903336486,0.026106180405348824,0.26674669294260284,0.22380081969504464,0.19151955792363884
S5bNE4Pmin8OQUMOFod8bQ,Ciao Wine Bar,Toronto,Yorkville,43.670475399999994,-79.3936453,italian,3.0,3.4725274725274726,0.3747057464744582,0.0787240646204543,0.25156020241339516,0.16203833376637297,0.13297165272531955
S7HAX9CfBs_pUPHO6jb1Uw,Mirra's Place,Toronto,,43.717259000000006,-79.455426,italian,3.0,3.5,0.28461743481701457,0.018817880444389718,0.30649143097323056,0.03845813625879792,0.35161511750656715
S8_W8gxq1I5r61iiy_Xt0w,Pastabilities,Toronto,St. Lawrence,43.6497601,-79.3746797,italian,2.0,3.888888888888889,0.10716190578574758,0.017608912084228448,0.12916226796135497,0.6304603102886791,0.11560660387998989
SHtvOqudT3zlOdCnZjrXzQ,The Big Slice,Toronto,Ryerson,43.6588619,-79.38184840000001,italian,1.0,3.4782608695652173,0.15035757950638953,0.48683298442398404,0.07243148667243339,0.038971220671254685,0.2514067287259382
SLCz2CaXXHJefrB942486w,Chicago Don,Toronto,Dovercourt,43.6617522,-79.4262935,italian,3.0,3.375,0.430319921089126,0.004539582727560834,0.2119441864451202,0.07063147786598312,0.28256483187221
SirdHmqK0LDKDQvJBYVLsA,College Street Bar,Toronto,Little Italy,43.6554165,-79.4129672,italian,2.0,3.466666666666667,0.3961604262080779,0.019960960625235648,0.1917186557335107,0.09459535705559784,0.2975646003775781
T7yKffTuhiIZclsgjfgowA,Pizzeria Via Mercanti,Toronto,Kensington Market,43.6541053,-79.4019622,italian,2.0,4.05,0.11831161578917318,0.47819409047747746,0.1473784786860938,0.10037160131490128,0.1557442137323542
TFftsYkRIUtdo6ZhRwJ2lQ,Terroni,Toronto,Trinity Bellwoods,43.6463059,-79.40916700000001,italian,2.0,3.8541666666666665,0.24621917402735918,0.1977739738646047,0.19415789659857952,0.18141574919456221,0.18043320631489432
TLMysu1mWiLEslCBon5W1g,Sidecar,Toronto,Little Italy,43.6552003,-79.4130828,italian,3.0,4.08457711442786,0.41596102692270354,0.010783476580797794,0.24818548811694707,0.1603254186017814,0.16474458977777057
TWt-6EilZoSH99CheLPD2A,Hey!,Toronto,Roncesvalles,43.6416889,-79.44713730000001,italian,2.0,3.3214285714285716,0.38329352352706897,0.019052897081172582,0.16180203087368936,0.1366910004904945,0.29916054802757447
TozYSxnKbMECma0exWdnFg,FK,Toronto,,43.68128239999999,-79.4287282,italian,,4.777777777777778,0.39748415865355136,0.009914698266806495,0.2566301054404946,0.25062851189085983,0.0853425257482877
U3xIe5_9iK95S9HxduOgWw,Ascari Enoteca,Toronto,Leslieville,43.662074100000005,-79.3353522,italian,3.0,4.197530864197531,0.2506665130803127,0.015287510903546521,0.2572788898593763,0.31406716920967737,0.16269991694708713
U4H4vWjfmhFBC9vzH1HH9A,Forest Hill Pizza,Toronto,,43.7009998,-79.4262166,italian,2.0,4.0,0.05865792430738186,0.6282825876329345,0.13399488701193785,0.026576142008721253,0.1524884590390245
UBW3Asjmih0nARbBNK3oEA,Il Gatto Nero,Toronto,Bickford Park,43.655254,-79.41889559999998,italian,2.0,3.4285714285714284,0.24927266956982358,0.16940821123377459,0.18856004285658967,0.1545542394678983,0.23820483687191374
UH6mET5JYZR6yPDVpTG9Og,Little Anthony's,Toronto,Financial District,43.6503164,-79.3842467,italian,2.0,3.795698924731183,0.2838092993440896,0.01099389830447117,0.2898176544591279,0.23955573301294567,0.1758234148793656
UHG4qz2wv_CrltSdCLVg-A,Big Slice Express,Toronto,Etobicoke,43.644289,-79.523891,italian,,3.6,0.1142499917229282,0.13886648538747623,0.01725221821444172,0.31512730042785936,0.4145040042472944
UP7ejOl-PQyWZ9iFRQD8Xw,Il Fornello,Toronto,Greektown,43.678689,-79.3468687,italian,2.0,3.5517241379310347,0.2723169618860873,0.24810047422870835,0.22708430219413225,0.10602446311296658,0.14647379857810544
UTj2l1Cdc6PFdPzVtJDndg,Mamma's Pizza,Toronto,Entertainment District,43.647779,-79.395362,italian,1.0,2.5555555555555554,0.1931594407387215,0.5564933187657723,0.032854735561786856,0.06650020788558436,0.15099229704813485
UUlp5Pkpq7w5pOiX6esJ9Q,Pizzaiolo,Toronto,Entertainment District,43.6471851,-79.3954536,italian,1.0,3.125,0.1764038006616162,0.6660569808953607,0.026023855015924743,0.01008829966606988,0.1214270637610284
UWupVhvb1qWZh8rNowJliQ,Woods Restaurant & Bar,Toronto,St. Lawrence,43.6489963,-79.37503240000001,italian,3.0,4.190476190476191,0.3903239589455266,0.011158737392311565,0.3208266653608057,0.14923078362919603,0.12845985467216015
UaVZYgDqNgZf6hX-E6DaWg,Grotto Lounge,Toronto,Little Italy,43.6548914,-79.4158237,italian,,3.25,0.33110785713189417,0.10272840743444094,0.0827432098580855,0.07856569323473392,0.40485483234084546
UcUEUd7a-vnHk14HcVgpDg,Il Fornello Restaurant,Toronto,Harbourfront,43.6392865,-79.3808801,italian,2.0,3.411764705882353,0.2517302867433145,0.2496952821400318,0.1671593427726497,0.2149620524996382,0.11645303584436563
UpmAfOoh6WTF9g6AH-6ofA,La Bruschetta Restaurant,Toronto,Corso Italia,43.67641029999999,-79.4487979,italian,3.0,4.185185185185185,0.28824211001793687,0.011772312862823531,0.2666911283532509,0.2926840042770903,0.14061044448889853
UsFFaNUWG5u7f9rHpJBHRQ,Domino's Pizza,Toronto,Etobicoke,43.660749200000005,-79.5113246,italian,1.0,4.75,0.20394842771898167,0.4790445129714943,0.05301003079375756,0.11402506074275134,0.1499719677730152
V4Ml-Urzen74dieQD-QeKw,Ciccio Sanwiccio,Toronto,,43.7287692,-79.40354549999999,italian,2.0,4.083333333333333,0.05241384834138694,0.03335435887273202,0.11286049716223745,0.4199127022976568,0.38145859332598664
VA95qAV2PRH9gtTi2Vfv4Q,Trattoria Nervosa,Toronto,Yorkville,43.6710199,-79.39108540000001,italian,2.0,3.9086757990867578,0.21372497002890886,0.13272693366243532,0.2390152405903113,0.24790908197005815,0.16662377374828624
VBcmyBxAPcpzbbnPbFfttA,La Bettola di Terroni,Toronto,Downtown Core,43.652199700000004,-79.37815490000001,italian,2.0,3.625,0.2562665192132011,0.10792095755334703,0.1698913800704579,0.3130851627749923,0.15283598038800175
VIP5_HoBm98wcJPwz0lZjg,Cinquelire,Toronto,,43.7086252,-79.45367590000001,italian,2.0,3.6666666666666665,0.17245655194458426,0.13929169921478599,0.24585027544609733,0.27637743365383627,0.1660240397406962
VbFGfmrl0VtXc10vKpj5aw,Porticello Restaurant,Toronto,Harbourfront,43.638766600000004,-79.38979,italian,2.0,3.5,0.2101227193654249,0.0,0.4788922801485448,0.14618863685892225,0.16479636362710814
Vl7knG5rR45zT97JdkCmMQ,Corrado's Authentic Italian Cuisine,Toronto,East York,43.6928272,-79.3339954,italian,2.0,5.0,0.1445939300057443,0.31216604693324984,0.09761203317084292,0.17497763808230335,0.2706503518078595
VutzmcU-hZt_WfgMkEuiFA,Pasta Tutti Giorni,Toronto,Scarborough,43.798445799999996,-79.13952929999999,italian,2.0,3.5,0.26055327100389075,0.1387012352328485,0.23757691605622547,0.21615396793678357,0.1470146097702517
W136-8ioIFosnpuBTzT05w,Mamma's Pizza,Toronto,,43.7116801,-79.37638570000001,italian,2.0,3.75,0.07116832550827404,0.6018853901560803,0.13677299464247988,0.03727900822892793,0.15289428146423772
W8Rv62fsDCbDp0L-Vl1NFg,Frank's Pizza House Restaurant,Toronto,Corso Italia,43.6768656,-79.4492976,italian,2.0,3.912280701754386,0.1617426891290977,0.4235000626195211,0.14002767723945153,0.11500249416131092,0.1597270768506186
WH6TE8U3B5BLRU2Ih4b4mw,Falasca,Toronto,Mount Pleasant and Davisville,43.7020135,-79.39728509999999,italian,2.0,3.9361702127659575,0.12272478545509902,0.5296606855929648,0.11326866530492898,0.1328059643716851,0.1015398992753221
WNnkyVvBfY1vTqiqSufZQA,Cibo Wine Bar,Toronto,Yonge and Eglinton,43.7114211,-79.399363,italian,3.0,3.4361702127659575,0.30283361730002273,0.10033031795554236,0.24894679046314439,0.17956046074297127,0.16832881353831916
WRkyYsX0h1_PJxyu3TS8ZA,Cantina,Toronto,Little Portugal,43.649582200000005,-79.4256294,italian,,4.8,0.4024100445406007,0.009807433938226992,0.22198830828889493,0.10788657261884746,0.2579076406134299
WbMZHFOOzjmQybWyHdfDxA,April√© Bambina,Toronto,Leslieville,43.6692354,-79.33609,italian,2.0,4.21875,0.19692817309550578,0.08528760934007255,0.24546292925342117,0.2694381901532553,0.20288309815774522
WlINkrwGmUzyR-hoG-pIlw,Basso Pizzeria,Toronto,Corktown,43.655545700000005,-79.3652656,italian,2.0,4.777777777777778,0.12123821123391822,0.33096955968521385,0.2079606205624792,0.115308349292962,0.22452325922542682
WoXBfzGHcL3x6ME-X06qhA,La Fenice,Toronto,Entertainment District,43.646092700000004,-79.39079129999999,italian,3.0,3.9696969696969697,0.3659918227560007,0.015231466413419588,0.22455876914932701,0.26662188209183973,0.12759605958941297
WoiF62tItSFtgO6gLrj_Hg,Caroline's,Toronto,Cabbagetown,43.6669665,-79.36906479999999,italian,2.0,2.5,0.5757216527980515,0.02017323595634165,0.014403718095977994,0.11071535444859029,0.27898603870103844
Wppq3ceZDMNCr24X4i-kfw,Mr Ciao,Toronto,Riverdale,43.665616,-79.3518608,italian,2.0,3.6,0.19667461115682014,0.3044012652504444,0.23000921205589178,0.1591510245591452,0.10976388697769845
WsJrIGGGo3qqrpneFeHx8g,Sabatino's Ristorante,Toronto,,43.69964829999999,-79.432514,italian,3.0,3.5,0.38418750256252937,0.0024608415353567854,0.26046409680300975,0.1824429400312952,0.1704446190678089
WwSwuMu_menj4BzTdrKUdQ,Rocco Restaurant & Bar,Toronto,Etobicoke,43.6300129,-79.4774528,italian,2.0,4.05,0.2055832071315538,0.05364014071744313,0.3678127567155202,0.18863070647954272,0.18433318895594014
WzleXDgNBtwNo80gn7CgEg,Mustachio Italian Eatery,Toronto,Downtown Core,43.6561838,-79.3830938,italian,1.0,4.666666666666667,0.09861154469334626,0.058789829097083864,0.2737430981680341,0.1519120660824511,0.4169434619590846
X3UyZfplYAXdSJpWPaxUIA,Panino Cappuccino,Toronto,,43.738648600000005,-79.53936440000001,italian,2.0,4.454545454545454,0.2487165161086138,0.07910612368160456,0.22866448192029318,0.2574490323702301,0.1860638459192584
X4rqmQMJcpY4EajFAFTSlw,Pizza Del Arte,Toronto,,43.6836301,-79.4184688,italian,2.0,3.857142857142857,0.11971597727842687,0.5333102904201575,0.12496104125066555,0.04423971635785281,0.17777297469289732
XD0LjNuPPwJPsTAHecUh7A,Terroni,Toronto,Rosedale,43.6800112831,-79.3905191479,italian,3.0,3.6621621621621623,0.28218901057797774,0.14511146334197902,0.22806769322441234,0.16460819975696714,0.18002363309866354
XH2TZmZt6gzHHpjqk8C6pg,Zucca Trattoria,Toronto,Mount Pleasant and Davisville,43.7037349,-79.3979305,italian,3.0,3.871794871794872,0.2915165947375143,0.01609815558032602,0.19341091778225838,0.35830532092656237,0.140669010973339
XT25YpQoNDuzAZHur-HZ8g,Pizzeria Libretto,Toronto,Financial District,43.6485343,-79.38484240000001,italian,2.0,3.917874396135266,0.1543541263049139,0.46134787965810087,0.15880717851528217,0.10551029274279727,0.11998052277890615
XXXb0ANM2vU37VnAAZvlVQ,Pizza Pizza,Toronto,Leslieville,43.670995231199996,-79.3282520771,italian,1.0,3.0,0.12034411729999313,0.6405799567268947,0.06209404658532617,0.04366150609780995,0.13332037328997606
Xfp4-gMS2HZhISIxw5HnvA,La Risata Ristorante,Toronto,,43.7821596,-79.4904296,italian,3.0,3.5454545454545454,0.2590082279960771,0.05437235498034429,0.25746782025386034,0.28506788512351305,0.1440837116462052
XlvpNPAZnzm-DJmKYmK2nQ,Tosto Quickfire Pizza Pasta,Toronto,Mount Pleasant and Davisville,43.7115783028,-79.3788680434,italian,2.0,3.9285714285714284,0.10784537438878031,0.22063244308286903,0.23580223510169548,0.27824866095948914,0.15747128646716596
XmdJO7O0hrtlLwAQdibm4Q,Atsa Matta For You? Trattoria,Toronto,Trinity Bellwoods,43.651993100000006,-79.4067119,italian,,4.6,0.23810687179582635,0.13746675480328016,0.15962520071477299,0.2411054752749003,0.22369569741122017
Xq9SvfRq_PBr8ma6vwh_Mw,Pizza Pizza,Toronto,,43.7084148,-79.47588420000001,italian,3.0,3.0,0.18377386794670722,0.7252227519070641,0.0,0.0,0.09100338014622877
XugCgJqRQgNGeiycvTybjA,Mamma's Pizza,Toronto,Willowdale,43.7640831,-79.41139790000001,italian,,2.5,0.1796987136282199,0.6295915790434329,0.0,0.19070970732834722,0.0
XxXJat55Oep1BMzQ9yJJhQ,Negroni,Toronto,Palmerston,43.656280200000005,-79.40974969999999,italian,2.0,4.2727272727272725,0.2416865330216648,0.017211474956373395,0.2160851066376269,0.26944762297151026,0.2555692624128246
Y7Mt00v9wDhyz7k3AlXKzA,Pizzaville,Toronto,Bickford Park,43.6547659,-79.4213507,italian,1.0,4.2,0.11534170388787683,0.5446529921580451,0.12509208779865227,0.05051941064966682,0.16439380550575897
YKbJP76PSTRXqTU_GNKoeQ,Politica Resto Bar,Toronto,Niagara,43.6433151,-79.4120547,american,3.0,3.875,0.3340961654227836,0.10413946732747409,0.2000518634523442,0.15415619342878206,0.20755631036861608
YKbJP76PSTRXqTU_GNKoeQ,Politica Resto Bar,Toronto,Niagara,43.6433151,-79.4120547,italian,3.0,3.875,0.3340961654227836,0.10413946732747409,0.2000518634523442,0.15415619342878206,0.20755631036861608
YSUcHqlKMPHHJ_cTrqtNrA,Vagabondo Italian Ristorante+Lounge,Toronto,St. Lawrence,43.648404,-79.375469,italian,2.0,3.508771929824561,0.34294614713494115,0.06996389671180878,0.2015701310001105,0.20335686925960855,0.18216295589353104
YcU8pVXAFxybe8aiOBQOcw,St Lawrence Pizza & Ice Cream,Toronto,St. Lawrence,43.6490516,-79.3717741,italian,1.0,4.3076923076923075,0.029533616630144494,0.1524923258374719,0.04344926088653881,0.6606252426315293,0.11389955401431558
Yqu3km0WcFRdUdrKan-LZA,Valens Restaurant,Toronto,Downtown Core,43.6559958,-79.3928937,italian,2.0,3.596774193548387,0.37070040107445623,0.00697268127356407,0.15220078587174377,0.2979468925226115,0.1721792392576244
YvrylyuWgbP90RgMqZQVnQ,Jz's Pizza,Toronto,Entertainment District,43.6452767607,-79.3897039038,italian,2.0,4.226415094339623,0.08749471091254271,0.3795733904375251,0.24528411645102252,0.1339666684295852,0.15368111376932445
ZBSha-zoPLias7wCQ0ZyVw,Gamberoni Restaurant,Toronto,,43.7295029,-79.4035613,italian,2.0,3.5,0.29640359347200823,0.015814190615527395,0.1984853198800383,0.19775809432497785,0.2915388017074482
ZL2QeOMAPXthvBmng5RN-Q,Pizza Hut,Toronto,Willowdale,43.764524,-79.412161,italian,,2.5,0.1284573091240326,0.7157112381545732,0.09803243885035524,0.05779901387103914,0.0
ZS3l1Q7InA5h4R8nMcFRwg,Noce Restaurant,Toronto,Niagara,43.6455613,-79.4113521,italian,3.0,3.975609756097561,0.32129325058805214,0.02991785007461712,0.29646372546037203,0.243330904829538,0.10899426904742071
ZUkUaGAbswsvFri2EfHFMQ,The Mad Italian Gelato Bar,Toronto,Mount Pleasant and Davisville,43.7059907,-79.3750554,italian,2.0,3.7058823529411766,0.18598421368423868,0.12387729577774259,0.1744952513838351,0.1050072703022862,0.41063596885189746
ZVJThf69z1Fu-CYm69_xDA,90 Second Pizzeria,Toronto,Queen Street West,43.6501893,-79.3890512,italian,2.0,3.6666666666666665,0.05764553638224918,0.5801164186332411,0.1695218297867863,0.09153963037992978,0.10117658481779362
ZXrjQxam_gy9t3SwzzhhJA,Atlas One Cafe,Toronto,Wychwood,43.6807316,-79.4307107,italian,2.0,3.75,0.37259411570420153,0.027563184112247462,0.11162433347898565,0.17039527622549008,0.3178230904790753
Zuwzb89m5JfOGyPgknSbCQ,Cafe Cinquecento,Toronto,Niagara,43.6429425,-79.4067972,italian,2.0,3.375,0.4398824273399738,0.07880150746754372,0.2032216789083973,0.0937074935479964,0.18438689273608877
ZyS5VIWXTQoqMfuv3UgtcQ,Amato Real Pizza,Toronto,High Park,43.6576309,-79.45304909999999,italian,1.0,3.625,0.09339114913561941,0.552077208728651,0.037129305649920154,0.11092040625223362,0.20648193023357592
_AVXgkX4DiNQAQj_3tNhFQ,Locale Mercatto,Toronto,Financial District,43.649993200000004,-79.3811834,italian,2.0,3.410958904109589,0.3047487262547888,0.12825472976008184,0.18622490834418148,0.23252506736178652,0.14824656827916136
_HVgDyFLIYsYZrpajBSgGw,Pizza Hut,Toronto,,43.6956732,-79.4515145,italian,,5.0,0.33254473558371017,0.5947529850598361,0.04159593606632019,0.0,0.03110634329013355
_K03oh0gftzge5y-dku-6A,La Forchetta,Toronto,Little Italy,43.654906,-79.41456120000001,italian,3.0,4.057142857142857,0.35308703277598535,0.004775646709144047,0.2549928547727278,0.22775006975807793,0.15939439598406485
_MOZSg1ajEvkubHXM3aDFg,Il Covo,Toronto,Little Italy,43.6551659159,-79.413312301,italian,3.0,4.117647058823529,0.33993694148280196,0.0055270540181573975,0.22181789292967685,0.34039520100440807,0.09232291056495576
_W-qUlstqSuWZzvIOxTEXw,Lusso Restaurant,Toronto,Harbourfront,43.6386403,-79.3806966,italian,3.0,4.0,0.46680429715438626,0.01695039304227435,0.2093264730853307,0.11590653086311188,0.19101230585489684
_fWZH1p8B_lwK4feQgtWkQ,Ritz Bar,Toronto,Entertainment District,43.645355468199995,-79.3871778221,italian,2.0,3.7142857142857144,0.2962560863093782,0.006788805166464957,0.42016391310367657,0.0001685531682966727,0.2766226422521836
_lW7i2zGl54a6XtumbtZFQ,Doppio Zero,Toronto,,43.7035934,-79.414273,italian,3.0,4.125,0.21750534199722296,0.2031685423467244,0.2516061857668077,0.2390262935820334,0.0886936363072114
_tWzGYtWJsPL657zfzvkTg,C House Lounge Cafe,Toronto,Yorkville,43.6712923,-79.3908793,italian,2.0,3.2,0.41913293098943855,0.01218113347749706,0.03553295311207834,0.06899429846649846,0.4641586839544877
_v3WsjEworH53RcWzWKEEw,Mio RistoBar,Toronto,Downtown Core,43.6495183,-79.37959659999999,italian,2.0,3.75,0.2802788508617062,0.0742394620496682,0.09219163940864872,0.12701674554468873,0.4262733021352882
a-Mo7Ipu_c5y21mmg0-F7g,Agio,Toronto,,43.676092,-79.4507311,italian,2.0,4.746153846153846,0.21264264675397712,0.01189239957470945,0.2578143020873854,0.32327673809337854,0.19437391349054967
a4MVM9E9022sYFrrYWy9DQ,Marcello‚Äôs pizzeria,Toronto,,43.6778954,-79.4425691,italian,2.0,4.136363636363637,0.141302008758911,0.28669051273910034,0.2091389352958395,0.2001136477196833,0.1627548954864659
a8PzL5rUpCa8MiQEuLZaOQ,Panda House,Toronto,,43.705873115799996,-79.311500847,italian,2.0,3.7142857142857144,0.31741624073089364,0.027412989694375216,0.19596928344156242,0.20090870118271487,0.2582927849504538
a8PzL5rUpCa8MiQEuLZaOQ,Panda House,Toronto,,43.705873115799996,-79.311500847,chinese,2.0,3.7142857142857144,0.31741624073089364,0.027412989694375216,0.19596928344156242,0.20090870118271487,0.2582927849504538
a9usBo16KZ-gxOJXdryNlQ,Pizza Pizza,Toronto,Bloordale Village,43.6589038,-79.4393633,italian,2.0,3.75,0.1138178140143188,0.6723587233911139,0.09953270421051752,0.01225973814813727,0.10203102023591248
aCA3j7cYs8JZFF0ExSfqEg,Lambretta Pizzeria East,Toronto,Leslieville,43.6630806,-79.3316179,italian,,4.285714285714286,0.21895399480134126,0.19553850872987635,0.26750695479594155,0.11211576023614477,0.20588478143669603
aIBvcOjkAURJJ-UH0G-s0g,Bitondo's Pizzeria,Toronto,Little Italy,43.653835,-79.4133282,italian,1.0,4.297872340425532,0.08790987183681115,0.4143775122063595,0.09836111779879839,0.1574804583522707,0.24187103980576047
aRut7oOB3wIuVQXLCrvEzQ,Riva,Toronto,Little Italy,43.655417299999996,-79.4133905,italian,2.0,2.75,0.5138566709651663,0.0017757457428021525,0.13946265706642588,0.04786957220183774,0.2970353540237679
aY0Y058p2_iWxMAZron2mg,Paese,Toronto,,43.7397281,-79.4342103,italian,3.0,4.121951219512195,0.2518640799964939,0.10715725375453226,0.3052494192792413,0.2035750099217163,0.13215423704801613
aYGqrw1lJHs8Hw0kHC5TVA,Mare Pizzeria,Toronto,Kensington Market,43.654760700000004,-79.40096729999999,italian,1.0,4.413793103448276,0.07538850477212877,0.4577488076792414,0.15684449867142722,0.08606972700878279,0.22394846186841974
aYKicBsSzLKr76_bvsURZA,Pizza e Pazzi,Toronto,New Toronto,43.6002871,-79.50760759999999,italian,2.0,2.5,0.30113628423511407,0.3298885782969616,0.19048512349397315,0.040012865620824435,0.13847714835312666
a_HejZvHvG2IM7ri1CnlYA,Paisano,Toronto,,43.7541723,-79.34951290000001,italian,2.0,3.5217391304347827,0.2750625637922644,0.04123537386645457,0.2184086555939765,0.3437827091510525,0.12151069759625195
aadG1TzULt-ezzUJZUSSJQ,Factory Girl,Toronto,Riverdale,43.676409299999996,-79.3561447,italian,2.0,3.590909090909091,0.2372838990174665,0.12283436526481742,0.22579013687228053,0.15875448747015122,0.25533711137528436
afc3QwjxDI79Rglr5jYqMA,Eatalian Pasta,Toronto,Swansea,43.6500837,-79.480012,italian,1.0,5.0,0.004863865463177193,0.014857679725522346,0.07347067497738283,0.6608851353960351,0.2459226444378826
apHPFnDUIaZM7uZoB9DXfw,Archeo,Toronto,Distillery District,43.650679916899996,-79.3595257288,italian,2.0,3.627450980392157,0.3564188915130323,0.07023743284535838,0.214021291544593,0.1538863969614551,0.20543598713556122
bNO_c8Gka2Rkwaub3qVAMQ,Micro Time Cafe,Toronto,Church-Wellesley Village,43.665211,-79.38331600000001,american,2.0,3.411764705882353,0.30454918284754867,0.01875981256268344,0.2236310856459852,0.2217473194913874,0.23131259945239538
bNO_c8Gka2Rkwaub3qVAMQ,Micro Time Cafe,Toronto,Church-Wellesley Village,43.665211,-79.38331600000001,italian,2.0,3.411764705882353,0.30454918284754867,0.01875981256268344,0.2236310856459852,0.2217473194913874,0.23131259945239538
bQ5VYGpju_cgYdUU1swRcw,Perigee,Toronto,Distillery District,43.650717900000004,-79.3580246,italian,,4.5,0.23044725425435578,0.009187506132716801,0.5087660426094915,0.18908899916861502,0.06251019783482083
b_yZrM3rVQVlifEg5naDpQ,Lyrics Music Bar and Grill,Toronto,Yorkville,43.670736299999994,-79.38904559999999,italian,2.0,2.6666666666666665,0.18849827326251314,0.005360208151517154,0.37154769702152146,0.06306330752322434,0.3715305140412239
bbLmWFHAr-dCR8KHVla8aQ,Pizza Pizza,Toronto,Riverdale,43.6760141,-79.3589764,italian,1.0,3.6666666666666665,0.3041695579766395,0.04484879230461483,0.25543255724759234,0.0015936207820150654,0.39395547168913825
bo4loBeLwkQqZ7HGrgxXRQ,Trattoria Taverniti,Toronto,Little Italy,43.655147,-79.413513,italian,2.0,4.372093023255814,0.16535743428343191,0.14931644070187444,0.2810602005691158,0.22965742484045848,0.17460849960511962
bw5xERiI3UpiWh2gert3lg,Kouzies,Toronto,,43.7468213,-79.52496909999999,italian,,5.0,0.08295176209860385,0.001547990805580429,0.3901346379432006,0.134614494674988,0.39075111447762717
c7zntdkvYL8XZrbGiYqLFQ,Pizza Hut,Toronto,Niagara,43.643934200000004,-79.40423879999999,italian,,1.0,0.3382625161851816,0.4949913722435046,0.16674611157131378,0.0,0.0
c8DsYusKjQYUxnTj9BtVvA,Piazzetta Trattoria,Toronto,,43.733556799999995,-79.4043843,italian,2.0,3.857142857142857,0.14183875197745632,0.24766243399285456,0.22345556844843553,0.19175021275530196,0.1952930328259517
cA9LmSotIsN3C8zCI94--A,Queen Margherita Pizza - Baby Point,Toronto,Bloor-West Village,43.6581688,-79.4877396,italian,2.0,3.9,0.14114054615743815,0.4484023549880128,0.1979959032972049,0.04288899595275274,0.16957219960459124
cDz_5MwEZV1LIkJiIFDpoQ,Trio Ristorante and Pizzeria,Toronto,,43.7288719,-79.40284190000001,italian,3.0,4.185185185185185,0.2460650875606334,0.20859190189555182,0.23328507219314984,0.23219074835099068,0.07986718999967424
cMrCi3nAcBi3aUKDRAySiw,Big Mamma's Boy,Toronto,Cabbagetown,43.667001,-79.3690606,italian,2.0,3.888888888888889,0.18865075356043212,0.2625437012228609,0.15562171469083305,0.09370494656849682,0.29947888395737704
cRQCPnhzfgFaiJUCWWAI5A,Sagra,Toronto,,43.6625399977,-79.4705351946,italian,,3.3333333333333335,0.1736155853935648,0.37668830429834305,0.09988067906030125,0.12275450898471364,0.22706092226307728
cSSgeQQOz2modfT7zTHJHQ,Pastizza,Toronto,St. Lawrence,43.6481186,-79.37198520000001,italian,2.0,4.260869565217392,0.21975943209192797,0.17388454642928194,0.32631265997260506,0.13820597143218058,0.14183739007400442
cVlW0omVTRaVJqnT-OBBsQ,Piola,Toronto,West Queen West,43.6426372,-79.4257699,italian,2.0,3.816666666666667,0.20923397372467742,0.33255547101487554,0.15199520627290736,0.1647206499407753,0.1414946990467644
cbxyYUsJMWk1oEgzfoJ28A,Il Gusto Ristorante,Toronto,Bickford Park,43.6547935,-79.4213405,italian,2.0,3.4285714285714284,0.3451470024130695,0.010094642260168454,0.2595619539819136,0.19488908268895086,0.19030731865589753
ct-giKPfU5KqDSZPblIPiQ,Left Bank Grill & Wine Bar,Toronto,,43.7354671,-79.41977879999999,american,3.0,3.3333333333333335,0.35954318767783117,0.0,0.46368364423251623,0.0,0.1767731680896525
ct-giKPfU5KqDSZPblIPiQ,Left Bank Grill & Wine Bar,Toronto,,43.7354671,-79.41977879999999,italian,3.0,3.3333333333333335,0.35954318767783117,0.0,0.46368364423251623,0.0,0.1767731680896525
d8LRNKz3_Cc5MlEQGWZ5Ag,Upper Crust,Toronto,Leslieville,43.6613875,-79.33918670000001,italian,2.0,3.0833333333333335,0.22260399149738733,0.08973036332312628,0.10082091687679103,0.2204882625296307,0.3663564657730647
dGuRCJV66l-K7flfrwEgaA,Mattachioni,Toronto,The Junction,43.664875889099996,-79.4549725527,italian,2.0,4.523809523809524,0.1304105910722315,0.35312977415059094,0.13014192082980708,0.1065428387736566,0.27977487517371397
dPWgvF0SjDRTd2r3hYDTWQ,Appetite,Toronto,Riverdale,43.6590524,-79.34938840000001,italian,2.0,3.8,0.25143228892528785,0.013152013363663007,0.40802694917337545,0.08608159432262714,0.24130715421504653
dZNA2tF7kXo7urqKytVHhQ,Pertino Restaurant,Toronto,Leslieville,43.6663526,-79.3168437,italian,2.0,3.25,0.14857260683852425,0.011689947828248882,0.1828688065986162,0.2897911100065335,0.36707752872807714
desFvtCBYm3gpiiHlrFw4g,La Famiglia,Toronto,,43.714929999999995,-79.3051,italian,2.0,4.526315789473684,0.07792467778977909,0.4536755442438128,0.18975464969354158,0.11708851639860876,0.16155661187425788
dizdLoOk0GMaSS_qQAuklQ,The Fifth & Terrace,Toronto,Entertainment District,43.649307944099995,-79.3893122699,american,4.0,4.170212765957447,0.39479831924881165,0.007198369863403498,0.279143049723664,0.13301938518642284,0.18584087597769797
dizdLoOk0GMaSS_qQAuklQ,The Fifth & Terrace,Toronto,Entertainment District,43.649307944099995,-79.3893122699,italian,4.0,4.170212765957447,0.39479831924881165,0.007198369863403498,0.279143049723664,0.13301938518642284,0.18584087597769797
djKTruHtS4n_vlfOknxjRw,Queen's Pasta Cafe,Toronto,Swansea,43.650588,-79.4779143,italian,2.0,3.63265306122449,0.20026359993464107,0.011962934604657213,0.18423459195352512,0.40003206436287664,0.20350680914429992
dpP8fIiaxypAD7NBRf38fg,Mamma's Pizza,Toronto,,43.754089,-79.3579885,italian,2.0,3.8333333333333335,0.13053943962532322,0.6655644403373346,0.05629581271367667,0.05186742823095867,0.09573287909270667
dulgBrNtDCGjYcbQa2E6uA,Michael's on Simcoe,Toronto,Entertainment District,43.648091799999996,-79.38636269999999,italian,4.0,4.139784946236559,0.364719702967761,0.01187569732299254,0.32881342761273713,0.1300685630711265,0.16452260902538296
eD11_3dIfUlZFDX_1vs91Q,Frankie's,Toronto,Leslieville,43.660540000000005,-79.343175,italian,,3.8333333333333335,0.19895969191546992,0.16647648055795058,0.14454920983970654,0.35003941155852886,0.13997520612834405
eEKfOX6KtQmLgb8z-1VfUA,Riviera Bakery,Toronto,Palmerston,43.6555093,-79.4131405,italian,1.0,3.757575757575758,0.23609225651573992,0.07966265077153149,0.1399875544120941,0.20161602422652505,0.3426415140741094
eMP3ffj6Zr7o3tY2G6EgSQ,CSB,Toronto,Little Italy,43.6554165,-79.4129672,italian,2.0,4.375,0.25153957210983763,0.020618638059677365,0.3089372663242567,0.10133575821587977,0.3175687652903485
eQCYur0033RkZdh5VjbF8A,Oliver & Bonacini Caf√© Grill,Toronto,St. Lawrence,43.647189124300006,-79.37679895689999,american,3.0,3.502923976608187,0.3502759785618838,0.04563666403391631,0.2114378852996786,0.16870188605557712,0.22394758604894416
eQCYur0033RkZdh5VjbF8A,Oliver & Bonacini Caf√© Grill,Toronto,St. Lawrence,43.647189124300006,-79.37679895689999,italian,3.0,3.502923976608187,0.3502759785618838,0.04563666403391631,0.2114378852996786,0.16870188605557712,0.22394758604894416
eQNApV0-OpYJec3y1OoBvg,Magic Oven,Toronto,The Junction,43.6647484,-79.4639484,italian,2.0,3.5714285714285716,0.17278293743763437,0.38757926135694404,0.15573149938885858,0.13150972365011457,0.15239657816644847
eVurjy0t-82KGUfPf2ViGQ,Domani Restaurant & Wine Bar,Toronto,Roncesvalles,43.649319,-79.449876,american,2.0,3.75,0.2493852683495937,0.05025469808974094,0.3868244900509283,0.13472053245586613,0.17881501105387088
eVurjy0t-82KGUfPf2ViGQ,Domani Restaurant & Wine Bar,Toronto,Roncesvalles,43.649319,-79.449876,italian,2.0,3.75,0.2493852683495937,0.05025469808974094,0.3868244900509283,0.13472053245586613,0.17881501105387088
eZQV20xRXOuqR1Hej3nEqA,Focaccia Italian Sandwiches,Toronto,Church-Wellesley Village,43.6694379,-79.3858528,italian,1.0,4.0,0.09803364085108687,0.0,0.007623991353497365,0.46414505858278515,0.4301973092126306
ee2oE4eBA_M5Zi4X7p5WyA,Piazzetta Trattoria 3,Toronto,Yonge and Eglinton,43.7114013,-79.3993216,italian,2.0,2.6666666666666665,0.19591640814824549,0.2532530084212147,0.13630955883190402,0.25667373848618025,0.15784728611245571
esnvHQxunLTAckQpntqbCg,Stelvio,Toronto,Queen Street West,43.649212,-79.395485,italian,2.0,4.253333333333333,0.23455607661838168,0.014293884485827404,0.2775306246418728,0.28914250377589756,0.1844769104780206
fDkQcos3MqqCYGWfl64iiA,Mistura Restaurant,Toronto,The Annex,43.674294700000004,-79.39822509999999,italian,4.0,4.0,0.3860750294678006,0.006386799797788916,0.26843574447389773,0.2376894171808724,0.10141300907964028
fWhs5KYwHcRFKmJ5siNNdA,Il Posto,Toronto,The Annex,43.6705216,-79.3947429,italian,3.0,3.6153846153846154,0.37391342760544916,0.0004361002494658841,0.2613196127705693,0.1730705861056227,0.19126027326889286
fmgGNZyZfeCU8fug5LnpjQ,Il Fornello,Toronto,The Beach,43.670568200000005,-79.2987658,italian,2.0,3.5,0.18710613690176373,0.3312951321219679,0.06767883696307694,0.13283826816690267,0.28108162584628876
ft5LUuDwmS8ONnI7AooLjQ,The Mad Italian,Toronto,Little Italy,43.655200799999996,-79.4135,italian,,4.05,0.20694006059206163,0.15721844708022503,0.030751628666464626,0.13759629947075472,0.46749356419049404
fuBpjG-lsD94_BdpjHxbuQ,Lo Zingaro,Toronto,Queen Street West,43.6477057921,-79.400947988,italian,2.0,4.153846153846154,0.16924522619409266,0.2716004865432203,0.22419536078615773,0.19723143999982493,0.13772748647670432
fyekfJA4hXNgMQ09HL9WIA,Famiglia Baldassarre,Toronto,,43.6704531,-79.4349792,italian,,4.9,0.07004581624191693,0.009756615350561966,0.05266969946887584,0.6090378024493124,0.25849006648933287
g1j8COaztNostGlxssCCVA,Pastissima,Toronto,,43.7153388,-79.3999542,italian,1.0,4.5,0.033348983632002026,0.007121627545340838,0.24980187056902828,0.38064821211791194,0.3290793061357169
g6AFW-zY0wDvBl9U82g4zg,Baretto Caffe,Toronto,,43.7447684,-79.34652709999999,italian,1.0,4.812785388127854,0.10815269115391009,0.08534637535140391,0.24997715853933905,0.15556526672675935,0.4009585082285878
gLJravrwk28C2WXExAh5iw,Pizza Hut,Toronto,,43.7541991,-79.3513823,italian,1.0,3.6666666666666665,0.12844006950204703,0.44131221483707767,0.030178714469090834,0.3464114461331045,0.05365755505868001
gMONN1bKUHlNKPrYGSADLQ,Bar Milano,Toronto,Harbourfront,43.638769,-79.3807571,italian,2.0,3.0357142857142856,0.3123741920975692,0.19137129461589578,0.1198190289566357,0.09797718651827324,0.27845829781162607
gQbfVuWEElYFqsS0qbUbpQ,Amato Pizza,Toronto,Leslieville,43.66189620000001,-79.33743740000001,italian,1.0,3.2857142857142856,0.07566747266493642,0.5370419905413237,0.12969162468178555,0.04582070038771074,0.2117782117242437
gju80t2hbwvCx6-JExZF3g,Sfizio Pizzeria & Wine Bar,Toronto,,43.6721292,-79.3774052,italian,2.0,4.181818181818182,0.1589962744600802,0.3570010512242109,0.22898355766490408,0.08068516717768782,0.17433394947311698
gtfLQysuCBEAQk3wwWxwTg,Viva Napoli,Toronto,Mount Pleasant and Davisville,43.7057591,-79.3889253,italian,2.0,3.982456140350877,0.1342433017081098,0.5247382903177618,0.1438987209652847,0.06377599406130595,0.1333436929475376
gzOjboYojl0RfUDiETdGXA,Vecchio Frak,Toronto,Bickford Park,43.6554188,-79.4177747,italian,2.0,3.8333333333333335,0.2512176148909823,0.19218735584095906,0.2826399084818593,0.20442425481351126,0.06953086597268802
hUGsHeHHPfJ4gpj4LwHyXw,Classico Louie's Pizzeria,Toronto,Yonge and Eglinton,43.713253200000004,-79.3994004,italian,1.0,4.217391304347826,0.08024241343751495,0.4914669501977831,0.15240853784597644,0.111769671689433,0.1641124268292927
hcHaWzM5wfdAbCWs4zmmqg,Nodo,Toronto,The Junction,43.665338399,-79.4656616449,italian,2.0,4.378787878787879,0.23585050570571336,0.09164046675752659,0.29488454762237853,0.22485508766921203,0.15276939224516947
hk2jA4-Phij48y8ixmIhiQ,Pastabilities,Toronto,Downtown Core,43.6575662,-79.3884777,italian,1.0,3.0,0.1552951870111811,0.040462946109089175,0.06046523610792123,0.39581357032705333,0.34796306044475517
hlrZHM4D48XiQtXh6cRg_w,The Old Spaghetti Factory,Toronto,St. Lawrence,43.646910600000005,-79.3743409,italian,2.0,3.314720812182741,0.30650048167246774,0.010974998200503105,0.17604713186066814,0.24566266213425791,0.260814726132103
i-Mn8RJw5xUkITQBVvcKcQ,Sofia,Toronto,Yorkville,43.6706375,-79.3918846,italian,4.0,4.0,0.242030677295213,0.041587944212522106,0.2517262197892548,0.1715463845661086,0.2931087741369015
i0bD4WCmVHdK92L73CNbgQ,Espressamente illy,Toronto,,43.726452188500005,-79.45265293119999,italian,2.0,3.861111111111111,0.1757436054386498,0.02334452827641708,0.2119238687750846,0.08138658643457947,0.5076014110752693
i6_TplN1-SXQGbACBfH9VQ,12 Tables,Toronto,,43.7233723515,-79.4162779227,italian,,4.333333333333333,0.1695309150087029,0.01938912659374334,0.32603456408763787,0.2867641924526189,0.19828120185729692
iAdj2sx6LHWt6_zM7U3GLw,Da-Maria Pizzeria & Spaghetti House,Toronto,,43.68257929999999,-79.4222501,italian,2.0,3.142857142857143,0.33599303428635646,0.20921345429250993,0.05615887971279515,0.1893859609927162,0.20924867071562228
iNlpsHMO9PRltC_EsV_vlA,Pasta Perfection,Toronto,Downtown Core,43.66195,-79.3833397,italian,,3.0,0.12617598442521027,0.25448968061189897,0.0,0.3515379349923478,0.26779639997054283
iag4htR8F7FmE9zpz7_GMw,Levetto,Toronto,Dufferin Grove,43.6536812,-79.42659040000001,italian,2.0,4.176470588235294,0.15384745723023951,0.24573391283725354,0.15566772320487626,0.2668829295753006,0.17786797715233
ihKI3k-fnzKERzKq3KOsxA,Coco Lezzone Resto & Bar,Toronto,Little Italy,43.655264,-79.41424190000001,italian,3.0,3.1578947368421053,0.4139417440418677,0.004869042351533741,0.19837452417852303,0.21389922497390004,0.16891546445417552
im8sxT2V-drSvxP17qdb2A,Sicilian Sidewalk Cafe,Toronto,Bickford Park,43.6553573,-79.4185968,italian,2.0,3.58,0.2537302376717518,0.016251458247197405,0.14930756602665737,0.11111906550692721,0.4695916725474662
ioEdisf6TTCoUbfQDnUCjA,Sharkey's Village Cafe,Toronto,Bloor-West Village,43.6512641,-79.4753219,italian,,3.0,0.3692360327964929,0.06563719112839908,0.1771466177682403,0.06333138199798313,0.32464877630888456
it1wU0wd2Lk9lCHC1xzoNw,Mela Cafe,Toronto,Yorkville,43.6717844,-79.3881704,italian,,3.5454545454545454,0.1765993518999796,0.039611636025905124,0.08416736920832522,0.26611017279970545,0.43351147006608454
ixGb4NLfgD90wZHlw94rLw,Pizza La Rosa,Toronto,,43.7725733,-79.3218593,italian,1.0,4.537037037037037,0.06060046454081363,0.4104367670295128,0.13515339980378477,0.19745353827165266,0.19635583035423632
j3KRVmUKQMcSSxGdDUv9oA,Saggio Italian Eatery & Espresso Bar,Toronto,,43.76140529999999,-79.5405304,italian,,3.75,0.015505720329417634,0.24918917593399068,0.30599729761357986,0.09213312661764705,0.3371746795053647
jATVbyYjlmjV4v0z8gXnqw,Sotto In the Village,Toronto,,43.6889878,-79.41266540000001,italian,,2.6666666666666665,0.29010158184531804,0.046989167866291176,0.20177944402675876,0.34415995788156745,0.11696984838006456
jAep5-Dl0PkvAiW96YLRCQ,Vivo¬†Pizza + Pasta,Toronto,,43.733244309899995,-79.4508890435,italian,,3.5,0.3537630118353487,0.07926546549109661,0.1279340528294607,0.14791021453673847,0.2911272553073556
jEqsHSLzQraqG1qaMNjsBA,La Sala Restaurant,Toronto,The Beach,43.6697445897,-79.3006072193,italian,3.0,4.666666666666667,0.21594271169234658,0.007137460592911528,0.35772950458795777,0.2577344936726766,0.16145582945410758
jM6JjZXFAQQANwdlEwbH3g,Faema Caffe,Toronto,,43.6715393,-79.42199709999998,italian,2.0,3.16,0.25081687002783826,0.11386651980892598,0.15142759826888852,0.08485197288551907,0.39903703900882836
jNw0Lnb_HVfhFVWe5q-qmw,Terrazza,Toronto,Bickford Park,43.6590509,-79.4223089,italian,2.0,4.333333333333333,0.17216465094191907,0.1669997869788278,0.320862600483154,0.22999590460441255,0.10997705699168654
jS6i--1iVudrIZNhKrG6-Q,L-eat Express Cafe,Toronto,,43.646645299999996,-79.39672579999998,italian,2.0,3.0714285714285716,0.18968611562363327,0.05314281884281193,0.1277485045370638,0.12445936115292273,0.5049631998435684
jXHz9eKcRuukkqJDI-cSig,More than Pasta,Toronto,Ossington Strip,43.646929799999995,-79.4198122,italian,1.0,4.0,0.0,0.0,0.0,0.8498181534581238,0.15018184654187616
jbbFyy2rl8x_7ssz-GifbQ,Fusilli Restaurant,Toronto,Corktown,43.6570599,-79.3571931,italian,2.0,3.388888888888889,0.2735478695086013,0.07271604794561629,0.22673095955850778,0.2168120006836466,0.210193122303628
jluEI1ZDQDeJlbl-M3YH3Q,Toula Restaurant & Bar,Toronto,Harbourfront,43.6408581,-79.37707900000001,italian,3.0,2.4745762711864407,0.544450194789413,0.005513864549509286,0.1957029444845143,0.15052147889546164,0.10381151728110181
js9rQZAlA5rr7oSBRRcCDw,Dimmi Bar & Trattoria,Toronto,Yorkville,43.6700945,-79.3926771,italian,2.0,3.9785714285714286,0.23066825383991185,0.10176630255459894,0.2394942686757183,0.19634198640679437,0.23172918852297655
k3fn9JFiNLNy2q5p0cE1kg,Carisma,Toronto,St. Lawrence,43.6495816,-79.3753509,italian,3.0,4.446969696969697,0.23216506047581628,0.010972546635948294,0.3300124352108357,0.2591601612304866,0.1676897964469134
k4PFaATcPO0tvTetNbdm8Q,Trattoria Giancarlo,Toronto,Little Italy,43.6553284,-79.4137911,italian,3.0,3.652173913043478,0.3349222313511869,0.016239371038262083,0.2618554129540117,0.22355550241297253,0.1634274822435668
k5azd7T8eqESrOP9TkBjOw,Langolino Wine Bar & Grill,Toronto,Palmerston,43.6555203,-79.41410690000001,italian,2.0,3.625,0.34882559546789615,0.006003707890949033,0.2879808802797079,0.1981640912027401,0.15902572515870683
k9AaulyfonmUlkmI3uMiQQ,Capitol Trattoria Pizzeria,Toronto,Little Italy,43.6550322,-79.4139276,italian,2.0,3.2,0.2864652604229269,0.10317322732064352,0.14428991021148677,0.2445601439155629,0.22151145812937986
kExmc2lS8BhFFlh9sjvuSA,The Standard Pizza & Pasta Bar,Toronto,Little Italy,43.6549406,-79.41683979999999,italian,2.0,3.4705882352941178,0.2346935370448832,0.22773067154747956,0.16773681405262253,0.1732249749185691,0.1966140024364456
kQ9gVGp5R_jZwLi0-q8PZQ,Hey Meatball,Toronto,Leslieville,43.6606484,-79.3422511,italian,2.0,4.137254901960785,0.14418079278197968,0.03039788706820441,0.1546495424037085,0.37948076068559955,0.2912910170605077
kYZJ94hdzbhZIIXhIZU5Dw,Strada 241,Toronto,Chinatown,43.6515584,-79.39722629999999,italian,2.0,3.630434782608696,0.20444437979454191,0.31640661053587343,0.1335813728623463,0.1468785610015618,0.19868907580567652
kjgatxWIFRvCOT75IP37qA,Casa Di Giorgio,Toronto,Mount Pleasant and Davisville,43.701932799999994,-79.3875809,italian,,3.3333333333333335,0.1665766643528399,0.27769837000962133,0.0891883037856847,0.3591417892710118,0.10739487258084218
kmPZPIbulnOv3Btg9YGWrA,Trapezzi,Toronto,Greektown,43.678101500000004,-79.3489693,italian,2.0,3.6666666666666665,0.4036009712950715,0.0,0.1895306266113923,0.1840587658089019,0.22280963628463427
kpZ2vPjkHfee4pCLC05tfg,Paganelli's,Toronto,St. Lawrence,43.6498422,-79.37036540000001,italian,3.0,3.707317073170732,0.2405207055983892,0.059992458062265164,0.22190567622022744,0.30961854263245225,0.1679626174866659
kqIjHVFbhg-mqRGRhpRKpg,Prego Restaurant,Toronto,Etobicoke,43.626083,-79.5036015,italian,2.0,4.8,0.3999442306868366,0.009709622726735586,0.21064560153932727,0.2501189606766704,0.1295815843704303
l09JfMeQ6ynYs5MCJtrcmQ,Alize Catering,Toronto,Yonge and Eglinton,43.7113993,-79.3993388,italian,3.0,3.0,0.47569737316451294,0.0013273555609340372,0.23490025826379257,0.1011666234505897,0.18690838956017075
l7bLPv5G6JwOySt8Wo7xkg,Paul's Spaghetti,Toronto,East York,43.693059999999996,-79.33359899999999,italian,2.0,4.03125,0.19882515670307022,0.0060780364153067016,0.2799944470287591,0.3070040738747268,0.20809828597813718
l8SNag-Ii0YUeSGHkA3Vhw,Ferro Bar & Cafe,Toronto,Wychwood,43.6809349,-79.4286208,italian,2.0,4.092307692307692,0.2334681099708342,0.13680715608368402,0.28587763676282046,0.15312952086471507,0.19071757631794617
lCMOdWehkmMbb-BY4B4XxA,Mamma's Pizza,Toronto,Downtown Core,43.650905,-79.3784558,italian,2.0,3.0,0.04919124758279164,0.7409128726663452,0.04852206723403855,0.0,0.1613738125168247
lFva3eDk1GRvJAWKknQKig,Bistro Camino,Toronto,The Danforth,43.689303100000004,-79.2974222,italian,2.0,4.266666666666667,0.3769652932614942,0.016685452833777467,0.17571486095798433,0.09514692918468239,0.3354874637620615
lPaMg95YRXAqiKMsfXsuEA,Carpano,Toronto,Palmerston,43.6562141,-79.4097186,italian,2.0,4.2,0.25138346985056836,0.001732190170201163,0.15318653842890104,0.28732430710029516,0.3063734944500343
lRidtP8BPrIy7QvFCWpDpg,Divino,Toronto,Yonge and St. Clair,43.68583710000001,-79.3932282,italian,2.0,3.4285714285714284,0.23692790461234367,0.14364003427297822,0.058554669728502824,0.36697822952983294,0.19389916185634237
lZlaPghRe2Z1EkMUsFKOuw,John's Italian Caffe,Toronto,Downtown Core,43.6559335,-79.39319429999999,italian,2.0,3.6666666666666665,0.2381454948478359,0.16925590766245194,0.16685302605233954,0.1925501575432378,0.2331954138941349
liCPyfxs-CYXAV_zAmB9dw,Osteria Dei Ganzi,Toronto,Church-Wellesley Village,43.6672279,-79.37897480000001,italian,2.0,3.5,0.3570548601131874,0.0881498138503784,0.23965018507870667,0.12684847951322265,0.18829666144450488
lk3-wld-aysXpgb2kPVE-Q,Pizza Hut,Toronto,,43.671972600000004,-79.3852814,italian,2.0,5.0,0.03805554840897428,0.3278651438267816,0.5705166188641483,0.0,0.06356268890009584
lsfFzCl7SXgoq8N5NjbvZA,Parmigiano Trattoria,Toronto,,43.727844,-79.4031035,italian,2.0,3.9523809523809526,0.21342172031285914,0.018445837127731766,0.27332989028273635,0.3297042130156195,0.1650983392610533
luJ2N0iMnfmqmj4ksl58HA,Pizza Pizza,Toronto,Seaton Village,43.6652249,-79.4114287,italian,1.0,4.5,0.0,0.730839703663575,0.269160296336425,0.0,0.0
lvv9Vv_5i4IwvDdofO_rKg,Trattoria Mercatto,Toronto,Downtown Core,43.6535594,-79.38040490000002,italian,2.0,3.697674418604651,0.26962637155041136,0.1436650714630774,0.21482197154408608,0.1976059545330345,0.17428063090939078
m02H7wS7LEN7ast4GcPtAA,Via Napoli,Toronto,Etobicoke,43.6484849,-79.5286632,italian,,5.0,0.01501210754190978,0.5599226456803047,0.27333868888529045,0.11867375397203461,0.033052803920460554
m8oxuFlS2KbhXR0bRKucMA,Cresta,Toronto,St. Lawrence,43.6480728505,-79.3718677746,italian,2.0,4.606060606060606,0.16093773589159202,0.16520977654603186,0.27090246583311567,0.1719229548287911,0.23102706690046934
m9tH7h2sKkyWMdTbBYej9g,Mamma's Pizza,Toronto,,43.7005602,-79.42860959999999,italian,3.0,2.5,0.03404199312356389,0.7672593843489828,0.13061537400427753,0.027254406200480773,0.04082884232269495
mA3kz245czbdqAyJMg9BsQ,La Veranda Osteria,Toronto,Etobicoke,43.6476149,-79.51181940000001,italian,2.0,3.5,0.3885156785046302,0.032833345272861615,0.19566227853359616,0.1933708628688791,0.1896178348200329
mAMWh1htdpk4jYJ6vOvM4g,Quattro 4 Ragazze,Toronto,The Danforth,43.684580700000005,-79.31891970000001,italian,2.0,4.238095238095238,0.12388453941568098,0.1285220186893765,0.1964252114398105,0.32191777260483817,0.2292504578502939
mAhu38hHUQyOatamyQsOww,Citta,Toronto,City Place,43.639867711899996,-79.397012023,italian,3.0,3.6,0.21643089944458907,0.176870707932817,0.19260298216388136,0.16399533516543566,0.25010007529327694
mH_T6JbQkGdWcL0htKvNxA,Uncle Tony's,Toronto,St. Lawrence,43.648368,-79.3750309,italian,2.0,4.365853658536586,0.140582424443421,0.25203259791014104,0.25970787677510393,0.1561399580870887,0.19153714278424536
mRrgBIT8vsYdI3YSfzCQhg,The Monkey Bar,Toronto,,43.7314893,-79.4036005,italian,3.0,4.285714285714286,0.31798704696911173,0.00951340132171204,0.2583506400274774,0.21622086101591623,0.19792805066578273
mUUTJY9_BqmAYxypHiqWrw,Francesca Italian Bakery & Delicatessen,Toronto,Scarborough,43.7875904,-79.2563907,italian,2.0,4.202127659574468,0.18961945681120004,0.03732925467682892,0.13776759932134838,0.27260554947573296,0.36267813971488944
mXvWf2_sXWNaLRsBo4O5Eg,J's Apron,Toronto,,43.662933871599996,-79.4032603875,italian,2.0,4.419354838709677,0.1906887698800716,0.006340597964437794,0.1503942893796985,0.17746914080968632,0.47510720196610584
mZULBMjzhkQub7nqtHqSlQ,Pizza Banfi,Toronto,,43.6884698,-79.4130949,italian,2.0,4.35,0.15219729558297934,0.22091750526578563,0.21431785021544275,0.13579508311400354,0.2767722658217887
mactLKv5GEgj6FdsYkdLVQ,Arbia Cafe Eatery,Toronto,Ryerson,43.6571711,-79.37852409999999,italian,1.0,4.666666666666667,0.03065064682742295,0.20469625568824978,0.21995634600647085,0.13413623882860157,0.4105605126492548
n9BrA1zIwlbiP1hLAc24jg,Tosto Quickfire Pizza Pasta,Toronto,Discovery District,43.661136,-79.3864087,italian,2.0,3.823529411764706,0.14766580355483513,0.23811570159331352,0.10175104024694441,0.32864716392159815,0.1838202906833088
nBl_4gw5ecGzNkHyzfii8g,Terroni,Toronto,Downtown Core,43.650861299999995,-79.3757027,italian,2.0,3.7072599531615924,0.26479342797726485,0.16185414854059507,0.20246356087816014,0.2195779421599822,0.15131092044399777
nPBZaN5ttrArS6tZwdjN7Q,Cabbagetown Brew,Toronto,Cabbagetown,43.6668304,-79.36919870000001,italian,2.0,4.5,0.12318620161362379,0.01903757003895198,0.24428229776467889,0.0751018135989556,0.5383921169837897
nQFlHK1UxglOjhblGSgeaw,Pizza Hut,Toronto,Mount Pleasant and Davisville,43.7006842,-79.37353780000001,italian,2.0,4.2,0.14263160723015597,0.7176747384770756,0.03260567783151079,0.035123830080958054,0.07196414638029953
